Time;Time in ms;gx;gy;gz;ax;ay;az;magx;magy;magz;baro;head;angx;angy;debug1;debug2;debug3;debug4;GPS_distanceToHome;GPS_directionToHome;GPS_altitude;GPS_fix;GPS_numSat;GPS_speed;GPS_update;GPS_latitude;GPS_longitude;cycleTime;i2cError;rcThrottle;rcYaw;rcRoll;rcPitch;rcAUX1;rcAUX2;rcAUX3;rcAUX4;Motor1;Motor2;Motor3;Motor4;Motor5;Motor6;Motor7;Motor8;
2014_02_23_09_38_17;1393144697272;0.0;0.0;0.0;0.0;0.0;0.0;0.0;0.0;0.0;1.88;0.0;0.0;0.0;0.0;0.0;2.0;0.0;0;0;0;0;0;0;0;0;0;0;0;1500.0;1500.0;1500.0;1500.0;1500.0;1500.0;1500.0;1500.0;0.0;0.0;0.0;0.0;0.0;0.0;0.0;0.0;
2014_02_23_09_38_17;1393144697279;0.0;0.0;0.0;0.0;0.0;0.0;0.0;0.0;0.0;1.88;0.0;0.0;0.0;0.0;0.0;2.0;0.0;0;0;0;0;0;0;0;0;0;0;0;1000.0;1500.0;1500.0;1500.0;1000.0;1000.0;1000.0;1000.0;0.0;0.0;0.0;0.0;0.0;0.0;0.0;0.0;
2014_02_23_09_38_17;1393144697290;0.0;0.0;0.0;0.0;0.0;0.0;0.0;0.0;0.0;1.88;0.0;0.0;0.0;0.0;0.0;2.0;0.0;0;0;0;0;0;0;0;0;0;0;0;1000.0;1500.0;1500.0;1500.0;1000.0;1000.0;1000.0;1000.0;0.0;0.0;0.0;0.0;0.0;0.0;0.0;0.0;
2014_02_23_09_38_17;1393144697298;0.0;0.0;0.0;0.0;0.0;0.0;0.0;0.0;0.0;1.88;0.0;0.0;0.0;0.0;0.0;2.0;0.0;0;0;0;0;0;0;0;0;0;0;0;1500.0;1500.0;1500.0;1500.0;1500.0;1500.0;1500.0;1500.0;0.0;0.0;0.0;0.0;0.0;0.0;0.0;0.0;
2014_02_23_09_38_17;1393144697303;0.0;0.0;0.0;0.0;0.0;0.0;0.0;0.0;0.0;1.88;0.0;0.0;0.0;0.0;0.0;2.0;0.0;0;0;0;0;0;0;0;0;0;0;0;1500.0;1500.0;1500.0;1500.0;1500.0;1500.0;1500.0;1500.0;0.0;0.0;0.0;0.0;0.0;0.0;0.0;0.0;
2014_02_23_09_38_17;1393144697307;0.0;0.0;0.0;0.0;0.0;0.0;0.0;0.0;0.0;1.88;0.0;0.0;0.0;0.0;0.0;2.0;0.0;0;0;0;0;0;0;0;0;0;0;0;1500.0;1500.0;1500.0;1500.0;1500.0;1500.0;1500.0;1500.0;0.0;0.0;0.0;0.0;0.0;0.0;0.0;0.0;
2014_02_23_09_38_17;1393144697313;0.0;0.0;0.0;0.0;0.0;0.0;0.0;0.0;0.0;1.88;0.0;0.0;0.0;0.0;0.0;2.0;0.0;0;0;0;0;0;0;0;0;0;0;0;1500.0;1500.0;1500.0;1500.0;1500.0;1500.0;1500.0;1500.0;0.0;0.0;0.0;0.0;0.0;0.0;0.0;0.0;
2014_02_23_09_38_17;1393144697320;0.0;0.0;0.0;0.0;0.0;0.0;0.0;0.0;0.0;1.88;0.0;0.0;0.0;0.0;0.0;2.0;0.0;0;0;0;0;0;0;0;0;0;0;0;1500.0;1500.0;1500.0;1500.0;1500.0;1500.0;1500.0;1500.0;0.0;0.0;0.0;0.0;0.0;0.0;0.0;0.0;
2014_02_23_09_38_17;1393144697325;0.0;0.0;0.0;0.0;0.0;0.0;0.0;0.0;0.0;1.88;0.0;0.0;0.0;0.0;0.0;2.0;0.0;0;0;0;0;0;0;0;0;0;0;0;1500.0;1500.0;1500.0;1500.0;1500.0;1500.0;1500.0;1500.0;0.0;0.0;0.0;0.0;0.0;0.0;0.0;0.0;
2014_02_23_09_38_17;1393144697329;0.0;0.0;0.0;0.0;0.0;0.0;0.0;0.0;0.0;1.88;0.0;0.0;0.0;0.0;0.0;2.0;0.0;0;0;0;0;0;0;0;0;0;0;0;1500.0;1500.0;1500.0;1500.0;1500.0;1500.0;1500.0;1500.0;0.0;0.0;0.0;0.0;0.0;0.0;0.0;0.0;
2014_02_23_09_38_17;1393144697336;0.0;0.0;0.0;0.0;0.0;0.0;0.0;0.0;0.0;1.88;0.0;0.0;0.0;0.0;0.0;2.0;0.0;0;0;0;0;0;0;0;0;0;0;0;1500.0;1500.0;1500.0;1500.0;1500.0;1500.0;1500.0;1500.0;0.0;0.0;0.0;0.0;0.0;0.0;0.0;0.0;
2014_02_23_09_38_17;1393144697339;0.0;0.0;0.0;0.0;0.0;0.0;0.0;0.0;0.0;1.88;0.0;0.0;0.0;0.0;0.0;2.0;0.0;0;0;0;0;0;0;0;0;0;0;0;1500.0;1500.0;1500.0;1500.0;1500.0;1500.0;1500.0;1500.0;0.0;0.0;0.0;0.0;0.0;0.0;0.0;0.0;
2014_02_23_09_38_17;1393144697343;0.0;0.0;0.0;0.0;0.0;0.0;0.0;0.0;0.0;1.88;0.0;0.0;0.0;0.0;0.0;2.0;0.0;0;0;0;0;0;0;0;0;0;0;0;1500.0;1500.0;1500.0;1500.0;1500.0;1500.0;1500.0;1500.0;0.0;0.0;0.0;0.0;0.0;0.0;0.0;0.0;
2014_02_23_09_38_17;1393144697364;0.0;0.0;0.0;0.0;0.0;0.0;0.0;0.0;0.0;1.88;0.0;0.0;0.0;0.0;0.0;2.0;0.0;0;0;0;0;0;0;0;0;0;0;0;1500.0;1500.0;1500.0;1500.0;1500.0;1500.0;1500.0;1500.0;0.0;0.0;0.0;0.0;0.0;0.0;0.0;0.0;
2014_02_23_09_38_17;1393144697375;0.0;0.0;0.0;0.0;0.0;0.0;0.0;0.0;0.0;1.88;0.0;0.0;0.0;0.0;0.0;2.0;0.0;0;0;0;0;0;0;0;0;0;0;0;1500.0;1500.0;1500.0;1500.0;1500.0;1500.0;1500.0;1500.0;0.0;0.0;0.0;0.0;0.0;0.0;0.0;0.0;
2014_02_23_09_38_17;1393144697389;0.0;0.0;0.0;0.0;0.0;0.0;0.0;0.0;0.0;1.88;0.0;0.0;0.0;0.0;0.0;2.0;0.0;0;0;0;0;0;0;0;0;0;0;0;1500.0;1500.0;1500.0;1500.0;1500.0;1500.0;1500.0;1500.0;0.0;0.0;0.0;0.0;0.0;0.0;0.0;0.0;
2014_02_23_09_38_17;1393144697392;0.0;0.0;0.0;0.0;0.0;0.0;0.0;0.0;0.0;1.88;0.0;0.0;0.0;0.0;0.0;2.0;0.0;0;0;0;0;0;0;0;0;0;0;0;1500.0;1500.0;1500.0;1500.0;1500.0;1500.0;1500.0;1500.0;0.0;0.0;0.0;0.0;0.0;0.0;0.0;0.0;
2014_02_23_09_38_17;1393144697410;0.0;0.0;0.0;0.0;0.0;0.0;0.0;0.0;0.0;1.88;0.0;0.0;0.0;0.0;0.0;2.0;0.0;0;0;0;0;0;0;0;0;0;0;0;1500.0;1500.0;1500.0;1500.0;1500.0;1500.0;1500.0;1500.0;0.0;0.0;0.0;0.0;0.0;0.0;0.0;0.0;
2014_02_23_09_38_17;1393144697438;0.0;0.0;0.0;0.0;0.0;0.0;0.0;0.0;0.0;1.88;0.0;0.0;0.0;0.0;0.0;2.0;0.0;0;0;0;0;0;0;0;0;0;0;0;1500.0;1500.0;1500.0;1500.0;1500.0;1500.0;1500.0;1500.0;0.0;0.0;0.0;0.0;0.0;0.0;0.0;0.0;
2014_02_23_09_38_17;1393144697468;0.0;0.0;0.0;0.0;0.0;0.0;0.0;0.0;0.0;1.88;0.0;0.0;0.0;0.0;0.0;2.0;0.0;0;0;0;0;0;0;0;0;0;0;0;1500.0;1500.0;1500.0;1500.0;1500.0;1500.0;1500.0;1500.0;0.0;0.0;0.0;0.0;0.0;0.0;0.0;0.0;
2014_02_23_09_38_17;1393144697495;0.0;0.0;0.0;0.0;0.0;0.0;0.0;0.0;0.0;1.88;0.0;0.0;0.0;0.0;0.0;2.0;0.0;0;0;0;0;0;0;0;0;0;0;0;1500.0;1500.0;1500.0;1500.0;1500.0;1500.0;1500.0;1500.0;0.0;0.0;0.0;0.0;0.0;0.0;0.0;0.0;
2014_02_23_09_38_17;1393144697502;0.0;0.0;0.0;0.0;0.0;0.0;0.0;0.0;0.0;1.88;0.0;0.0;0.0;0.0;0.0;2.0;0.0;0;0;0;0;0;0;0;0;0;0;0;1500.0;1500.0;1500.0;1500.0;1500.0;1500.0;1500.0;1500.0;0.0;0.0;0.0;0.0;0.0;0.0;0.0;0.0;
2014_02_23_09_38_17;1393144697521;0.0;0.0;0.0;0.0;0.0;0.0;0.0;0.0;0.0;1.88;0.0;0.0;0.0;0.0;0.0;2.0;0.0;0;0;0;0;0;0;0;0;0;0;0;1000.0;1500.0;1500.0;1500.0;1000.0;1000.0;1000.0;1000.0;0.0;0.0;0.0;0.0;0.0;0.0;0.0;0.0;
2014_02_23_09_38_17;1393144697524;0.0;0.0;0.0;0.0;0.0;0.0;0.0;0.0;0.0;1.88;0.0;0.0;0.0;0.0;0.0;2.0;0.0;0;0;0;0;0;0;0;0;0;0;0;1000.0;1500.0;1500.0;1500.0;1000.0;1000.0;1000.0;1000.0;0.0;0.0;0.0;0.0;0.0;0.0;0.0;0.0;
2014_02_23_09_38_17;1393144697542;0.0;0.0;0.0;0.0;0.0;0.0;0.0;0.0;0.0;1.88;0.0;0.0;0.0;0.0;0.0;2.0;0.0;0;0;0;0;0;0;0;0;0;0;0;1000.0;1500.0;1500.0;1500.0;1000.0;1000.0;1000.0;1000.0;0.0;0.0;0.0;0.0;0.0;0.0;0.0;0.0;
2014_02_23_09_38_17;1393144697568;0.0;0.0;0.0;0.0;0.0;0.0;0.0;0.0;0.0;1.88;0.0;0.0;0.0;0.0;0.0;2.0;0.0;0;0;0;0;0;0;0;0;0;0;0;1000.0;1500.0;1500.0;1500.0;1000.0;1000.0;1000.0;1000.0;0.0;0.0;0.0;0.0;0.0;0.0;0.0;0.0;
2014_02_23_09_38_17;1393144697580;0.0;0.0;0.0;0.0;0.0;0.0;0.0;0.0;0.0;1.88;0.0;0.0;0.0;0.0;0.0;2.0;0.0;0;0;0;0;0;0;0;0;0;0;0;1000.0;1500.0;1500.0;1500.0;1000.0;1000.0;1000.0;1000.0;0.0;0.0;0.0;0.0;0.0;0.0;0.0;0.0;
2014_02_23_09_38_17;1393144697593;0.0;0.0;0.0;0.0;0.0;0.0;0.0;0.0;0.0;1.88;0.0;0.0;0.0;0.0;0.0;2.0;0.0;0;0;0;0;0;0;0;0;0;0;0;1000.0;1500.0;1500.0;1500.0;1000.0;1000.0;1000.0;1000.0;0.0;0.0;0.0;0.0;0.0;0.0;0.0;0.0;
2014_02_23_09_38_17;1393144697623;0.0;0.0;0.0;0.0;0.0;0.0;0.0;0.0;0.0;1.88;0.0;0.0;0.0;0.0;0.0;2.0;0.0;0;0;0;0;0;0;0;0;0;0;0;1000.0;1500.0;1500.0;1500.0;1000.0;1000.0;1000.0;1000.0;0.0;0.0;0.0;0.0;0.0;0.0;0.0;0.0;
2014_02_23_09_38_17;1393144697629;0.0;0.0;0.0;0.0;0.0;0.0;0.0;0.0;0.0;1.88;0.0;0.0;0.0;0.0;0.0;2.0;0.0;0;0;0;0;0;0;0;0;0;0;0;1000.0;1500.0;1500.0;1500.0;1000.0;1000.0;1000.0;1000.0;0.0;0.0;0.0;0.0;0.0;0.0;0.0;0.0;
2014_02_23_09_38_17;1393144697649;0.0;0.0;0.0;0.0;0.0;0.0;0.0;0.0;0.0;1.88;0.0;0.0;0.0;0.0;0.0;2.0;0.0;0;0;0;0;0;0;0;0;0;0;0;1000.0;1500.0;1500.0;1500.0;1000.0;1000.0;1000.0;1000.0;0.0;0.0;0.0;0.0;0.0;0.0;0.0;0.0;
2014_02_23_09_38_17;1393144697652;0.0;0.0;0.0;0.0;0.0;0.0;0.0;0.0;0.0;1.88;0.0;0.0;0.0;0.0;0.0;2.0;0.0;0;0;0;0;0;0;0;0;0;0;0;1000.0;1500.0;1500.0;1500.0;1000.0;1000.0;1000.0;1000.0;0.0;0.0;0.0;0.0;0.0;0.0;0.0;0.0;
2014_02_23_09_38_17;1393144697699;0.0;0.0;0.0;0.0;0.0;0.0;0.0;0.0;0.0;1.88;0.0;0.0;0.0;0.0;0.0;2.0;0.0;0;0;0;0;0;0;0;0;0;0;0;1000.0;1500.0;1500.0;1500.0;1000.0;1000.0;1000.0;1000.0;0.0;0.0;0.0;0.0;0.0;0.0;0.0;0.0;
2014_02_23_09_38_17;1393144697731;0.0;0.0;0.0;0.0;0.0;0.0;0.0;0.0;0.0;1.88;0.0;0.0;0.0;0.0;0.0;2.0;0.0;0;0;0;0;0;0;0;0;0;0;0;1000.0;1500.0;1500.0;1500.0;1000.0;1000.0;1000.0;1000.0;0.0;0.0;0.0;0.0;0.0;0.0;0.0;0.0;
2014_02_23_09_38_17;1393144697734;0.0;0.0;0.0;0.0;0.0;0.0;0.0;0.0;0.0;1.88;0.0;0.0;0.0;0.0;0.0;2.0;0.0;0;0;0;0;0;0;0;0;0;0;0;1000.0;1500.0;1500.0;1500.0;1000.0;1000.0;1000.0;1000.0;0.0;0.0;0.0;0.0;0.0;0.0;0.0;0.0;
2014_02_23_09_38_17;1393144697740;0.0;0.0;0.0;0.0;0.0;0.0;0.0;0.0;0.0;1.88;0.0;0.0;0.0;0.0;0.0;2.0;0.0;0;0;0;0;0;0;0;0;0;0;0;1000.0;1500.0;1500.0;1500.0;1000.0;1000.0;1000.0;1000.0;0.0;0.0;0.0;0.0;0.0;0.0;0.0;0.0;
2014_02_23_09_38_17;1393144697750;0.0;0.0;0.0;0.0;0.0;0.0;0.0;0.0;0.0;1.88;0.0;0.0;0.0;0.0;0.0;2.0;0.0;0;0;0;0;0;0;0;0;0;0;0;1000.0;1500.0;1500.0;1500.0;1000.0;1000.0;1000.0;1000.0;0.0;0.0;0.0;0.0;0.0;0.0;0.0;0.0;
2014_02_23_09_38_17;1393144697830;0.0;0.0;0.0;0.0;0.0;0.0;0.0;0.0;0.0;1.88;0.0;0.0;0.0;0.0;0.0;2.0;0.0;0;0;0;0;0;0;0;0;0;0;0;1000.0;1500.0;1500.0;1500.0;1000.0;1000.0;1000.0;1000.0;0.0;0.0;0.0;0.0;0.0;0.0;0.0;0.0;
2014_02_23_09_38_17;1393144697833;0.0;0.0;0.0;0.0;0.0;0.0;0.0;0.0;0.0;1.88;0.0;0.0;0.0;0.0;0.0;2.0;0.0;0;0;0;0;0;0;0;0;0;0;0;1000.0;1500.0;1500.0;1500.0;1000.0;1000.0;1000.0;1000.0;0.0;0.0;0.0;0.0;0.0;0.0;0.0;0.0;
2014_02_23_09_38_17;1393144697853;0.0;0.0;0.0;0.0;0.0;0.0;0.0;0.0;0.0;1.88;0.0;0.0;0.0;0.0;0.0;2.0;0.0;0;0;0;0;0;0;0;0;0;0;0;1000.0;1500.0;1500.0;1500.0;1000.0;1000.0;1000.0;1000.0;0.0;0.0;0.0;0.0;0.0;0.0;0.0;0.0;
2014_02_23_09_38_17;1393144697890;0.0;0.0;0.0;0.0;0.0;0.0;0.0;0.0;0.0;1.88;0.0;0.0;0.0;0.0;0.0;2.0;0.0;0;0;0;0;0;0;0;0;0;0;0;1000.0;1500.0;1500.0;1500.0;1000.0;1000.0;1000.0;1000.0;0.0;0.0;0.0;0.0;0.0;0.0;0.0;0.0;
2014_02_23_09_38_17;1393144697893;0.0;0.0;0.0;0.0;0.0;0.0;0.0;0.0;0.0;1.88;0.0;0.0;0.0;0.0;0.0;2.0;0.0;0;0;0;0;0;0;0;0;0;0;0;1000.0;1500.0;1500.0;1500.0;1000.0;1000.0;1000.0;1000.0;0.0;0.0;0.0;0.0;0.0;0.0;0.0;0.0;
2014_02_23_09_38_17;1393144697945;0.0;0.0;0.0;0.0;0.0;0.0;0.0;0.0;0.0;1.89;0.0;0.0;0.0;0.0;0.0;2.0;0.0;0;0;0;0;0;0;0;0;0;0;0;1000.0;1500.0;1500.0;1500.0;1000.0;1000.0;1000.0;1000.0;0.0;0.0;0.0;0.0;0.0;0.0;0.0;0.0;
2014_02_23_09_38_17;1393144697967;0.0;0.0;0.0;0.0;0.0;0.0;0.0;0.0;0.0;1.89;0.0;0.0;0.0;0.0;0.0;2.0;0.0;0;0;0;0;0;0;0;0;0;0;0;1000.0;1500.0;1500.0;1500.0;2000.0;1000.0;1000.0;1000.0;0.0;0.0;0.0;0.0;0.0;0.0;0.0;0.0;
2014_02_23_09_38_17;1393144697989;0.0;0.0;0.0;0.0;0.0;0.0;0.0;0.0;0.0;1.89;0.0;0.0;0.0;0.0;0.0;2.0;0.0;0;0;0;0;0;0;0;0;0;0;0;1000.0;1500.0;1500.0;1500.0;2000.0;1000.0;1000.0;1000.0;0.0;0.0;0.0;0.0;0.0;0.0;0.0;0.0;
2014_02_23_09_38_18;1393144698008;0.0;0.0;0.0;0.0;0.0;0.0;0.0;0.0;0.0;1.89;0.0;0.0;0.0;0.0;0.0;2.0;0.0;0;0;0;0;0;0;0;0;0;0;0;1000.0;1500.0;1500.0;1500.0;2000.0;1000.0;1000.0;1000.0;0.0;0.0;0.0;0.0;0.0;0.0;0.0;0.0;
2014_02_23_09_38_18;1393144698015;0.0;0.0;0.0;0.0;0.0;0.0;0.0;0.0;0.0;1.89;0.0;0.0;0.0;0.0;0.0;2.0;0.0;0;0;0;0;0;0;0;0;0;0;0;1000.0;1500.0;1500.0;1500.0;2000.0;1000.0;1000.0;1000.0;0.0;0.0;0.0;0.0;0.0;0.0;0.0;0.0;
2014_02_23_09_38_18;1393144698040;0.0;0.0;0.0;0.0;0.0;0.0;0.0;0.0;0.0;1.89;0.0;0.0;0.0;0.0;0.0;2.0;0.0;0;0;0;0;0;0;0;0;0;0;0;1000.0;1500.0;1500.0;1500.0;2000.0;1000.0;1000.0;1000.0;0.0;0.0;0.0;0.0;0.0;0.0;0.0;0.0;
2014_02_23_09_38_18;1393144698068;0.0;0.0;0.0;0.0;0.0;0.0;0.0;0.0;0.0;1.89;0.0;0.0;0.0;0.0;0.0;2.0;0.0;0;0;0;0;0;0;0;0;0;0;0;1000.0;1500.0;1500.0;1500.0;2000.0;1000.0;1000.0;1000.0;0.0;0.0;0.0;0.0;0.0;0.0;0.0;0.0;
2014_02_23_09_38_18;1393144698074;0.0;0.0;0.0;0.0;0.0;0.0;0.0;0.0;0.0;1.89;0.0;0.0;0.0;0.0;0.0;2.0;0.0;0;0;0;0;0;0;0;0;0;0;0;1000.0;1500.0;1500.0;1500.0;2000.0;1000.0;1000.0;1000.0;0.0;0.0;0.0;0.0;0.0;0.0;0.0;0.0;
2014_02_23_09_38_18;1393144698099;0.0;0.0;0.0;0.0;0.0;0.0;0.0;0.0;0.0;1.89;0.0;0.0;0.0;0.0;0.0;2.0;0.0;0;0;0;0;0;0;0;0;0;0;0;1000.0;1500.0;1500.0;1500.0;2000.0;1000.0;1000.0;1000.0;0.0;0.0;0.0;0.0;0.0;0.0;0.0;0.0;
2014_02_23_09_38_18;1393144698135;0.0;0.0;0.0;0.0;0.0;0.0;0.0;0.0;0.0;1.89;0.0;0.0;0.0;0.0;0.0;2.0;0.0;0;0;0;0;0;0;0;0;0;0;0;1000.0;1500.0;1500.0;1500.0;2000.0;1000.0;1000.0;1000.0;0.0;0.0;0.0;0.0;0.0;0.0;0.0;0.0;
2014_02_23_09_38_18;1393144698140;0.0;0.0;0.0;0.0;0.0;0.0;0.0;0.0;0.0;1.89;0.0;0.0;0.0;0.0;0.0;2.0;0.0;0;0;0;0;0;0;0;0;0;0;0;1000.0;1500.0;1500.0;1500.0;2000.0;1000.0;1000.0;1000.0;0.0;0.0;0.0;0.0;0.0;0.0;0.0;0.0;
2014_02_23_09_38_18;1393144698163;0.0;0.0;0.0;0.0;0.0;0.0;0.0;0.0;0.0;1.89;0.0;0.0;0.0;0.0;0.0;2.0;0.0;0;0;0;0;0;0;0;0;0;0;0;1000.0;1500.0;1500.0;1500.0;2000.0;1000.0;1000.0;1000.0;0.0;0.0;0.0;0.0;0.0;0.0;0.0;0.0;
2014_02_23_09_38_18;1393144698192;0.0;0.0;0.0;0.0;0.0;0.0;0.0;0.0;0.0;1.89;0.0;0.0;0.0;0.0;0.0;2.0;0.0;0;0;0;0;0;0;0;0;0;0;0;1000.0;1500.0;1500.0;1500.0;2000.0;1000.0;1000.0;1000.0;0.0;0.0;0.0;0.0;0.0;0.0;0.0;0.0;
2014_02_23_09_38_18;1393144698201;0.0;0.0;0.0;0.0;0.0;0.0;0.0;0.0;0.0;1.89;0.0;0.0;0.0;0.0;0.0;2.0;0.0;0;0;0;0;0;0;0;0;0;0;0;1000.0;1500.0;1500.0;1500.0;2000.0;1000.0;1000.0;1000.0;0.0;0.0;0.0;0.0;0.0;0.0;0.0;0.0;
2014_02_23_09_38_18;1393144698227;0.0;0.0;0.0;0.0;0.0;0.0;0.0;0.0;0.0;1.89;0.0;0.0;0.0;0.0;0.0;2.0;0.0;0;0;0;0;0;0;0;0;0;0;0;1000.0;1500.0;1500.0;1500.0;2000.0;1000.0;1000.0;1000.0;0.0;0.0;0.0;0.0;0.0;0.0;0.0;0.0;
2014_02_23_09_38_18;1393144698281;0.0;0.0;0.0;0.0;0.0;0.0;0.0;0.0;0.0;1.89;0.0;0.0;0.0;0.0;0.0;2.0;0.0;0;0;0;0;0;0;0;0;0;0;0;1000.0;1500.0;1500.0;1500.0;2000.0;1000.0;1000.0;1000.0;0.0;0.0;0.0;0.0;0.0;0.0;0.0;0.0;
2014_02_23_09_38_18;1393144698292;0.0;0.0;0.0;0.0;0.0;0.0;0.0;0.0;0.0;1.89;0.0;0.0;0.0;0.0;0.0;2.0;0.0;0;0;0;0;0;0;0;0;0;0;0;1000.0;1500.0;1500.0;1500.0;2000.0;1000.0;1000.0;1000.0;0.0;0.0;0.0;0.0;0.0;0.0;0.0;0.0;
2014_02_23_09_38_18;1393144698312;0.0;0.0;0.0;0.0;0.0;0.0;0.0;0.0;0.0;1.89;0.0;0.0;0.0;0.0;0.0;2.0;0.0;0;0;0;0;0;0;0;0;0;0;0;1000.0;1500.0;1500.0;1500.0;2000.0;1000.0;1000.0;1000.0;0.0;0.0;0.0;0.0;0.0;0.0;0.0;0.0;
2014_02_23_09_38_18;1393144698352;0.0;0.0;0.0;0.0;0.0;0.0;0.0;0.0;0.0;1.89;0.0;0.0;0.0;0.0;0.0;2.0;0.0;0;0;0;0;0;0;0;0;0;0;0;1000.0;1500.0;1500.0;1500.0;2000.0;1000.0;1000.0;1000.0;0.0;0.0;0.0;0.0;0.0;0.0;0.0;0.0;
2014_02_23_09_38_18;1393144698361;0.0;0.0;0.0;0.0;0.0;0.0;0.0;0.0;0.0;1.89;0.0;0.0;0.0;0.0;0.0;2.0;0.0;0;0;0;0;0;0;0;0;0;0;0;1000.0;1500.0;1500.0;1500.0;2000.0;1000.0;1000.0;1000.0;0.0;0.0;0.0;0.0;0.0;0.0;0.0;0.0;
2014_02_23_09_38_18;1393144698386;0.0;0.0;0.0;0.0;0.0;0.0;0.0;0.0;0.0;1.89;0.0;0.0;0.0;0.0;0.0;2.0;0.0;0;0;0;0;0;0;0;0;0;0;0;1000.0;1500.0;1500.0;1500.0;2000.0;1000.0;1000.0;1000.0;0.0;0.0;0.0;0.0;0.0;0.0;0.0;0.0;
2014_02_23_09_38_18;1393144698451;0.0;0.0;0.0;0.0;0.0;0.0;0.0;0.0;0.0;1.89;0.0;0.0;0.0;0.0;0.0;2.0;0.0;0;0;0;0;0;0;0;0;0;0;0;1000.0;1500.0;1500.0;1500.0;2000.0;1000.0;1000.0;1000.0;0.0;0.0;0.0;0.0;0.0;0.0;0.0;0.0;
2014_02_23_09_38_18;1393144698455;0.0;0.0;0.0;0.0;0.0;0.0;0.0;0.0;0.0;1.89;0.0;0.0;0.0;0.0;0.0;2.0;0.0;0;0;0;0;0;0;0;0;0;0;0;1000.0;1500.0;1500.0;1500.0;2000.0;1000.0;1000.0;1000.0;0.0;0.0;0.0;0.0;0.0;0.0;0.0;0.0;
2014_02_23_09_38_18;1393144698470;0.0;0.0;0.0;0.0;0.0;0.0;0.0;0.0;0.0;1.89;0.0;0.0;0.0;0.0;0.0;2.0;0.0;0;0;0;0;0;0;0;0;0;0;0;1000.0;1500.0;1500.0;1500.0;2000.0;1000.0;1000.0;1000.0;0.0;0.0;0.0;0.0;0.0;0.0;0.0;0.0;
2014_02_23_09_38_18;1393144698511;0.0;0.0;0.0;0.0;0.0;0.0;0.0;0.0;0.0;1.89;0.0;0.0;0.0;0.0;0.0;2.0;0.0;0;0;0;0;0;0;0;0;0;0;0;1000.0;1500.0;1500.0;1500.0;1000.0;1000.0;1000.0;1000.0;0.0;0.0;0.0;0.0;0.0;0.0;0.0;0.0;
2014_02_23_09_38_18;1393144698515;0.0;0.0;0.0;0.0;0.0;0.0;0.0;0.0;0.0;1.89;0.0;0.0;0.0;0.0;0.0;2.0;0.0;0;0;0;0;0;0;0;0;0;0;0;1000.0;1500.0;1500.0;1500.0;1000.0;1000.0;1000.0;1000.0;0.0;0.0;0.0;0.0;0.0;0.0;0.0;0.0;
2014_02_23_09_38_18;1393144698533;0.0;0.0;0.0;0.0;0.0;0.0;0.0;0.0;0.0;1.89;0.0;0.0;0.0;0.0;0.0;2.0;0.0;0;0;0;0;0;0;0;0;0;0;0;1000.0;1500.0;1500.0;1500.0;1000.0;1000.0;1000.0;1000.0;0.0;0.0;0.0;0.0;0.0;0.0;0.0;0.0;
2014_02_23_09_38_18;1393144698541;0.0;0.0;0.0;0.0;0.0;0.0;0.0;0.0;0.0;1.89;0.0;0.0;0.0;0.0;0.0;2.0;0.0;0;0;0;0;0;0;0;0;0;0;0;1000.0;1500.0;1500.0;1500.0;1000.0;1000.0;1000.0;1000.0;0.0;0.0;0.0;0.0;0.0;0.0;0.0;0.0;
2014_02_23_09_38_18;1393144698564;0.0;0.0;0.0;0.0;0.0;0.0;0.0;0.0;0.0;1.89;0.0;0.0;0.0;0.0;0.0;2.0;0.0;0;0;0;0;0;0;0;0;0;0;0;1000.0;1500.0;1500.0;1500.0;1000.0;1000.0;1000.0;1000.0;0.0;0.0;0.0;0.0;0.0;0.0;0.0;0.0;
2014_02_23_09_38_18;1393144698586;0.0;0.0;0.0;0.0;0.0;0.0;0.0;0.0;0.0;1.89;0.0;0.0;0.0;0.0;0.0;2.0;0.0;0;0;0;0;0;0;0;0;0;0;0;1000.0;1500.0;1500.0;1500.0;1000.0;1000.0;1000.0;1000.0;0.0;0.0;0.0;0.0;0.0;0.0;0.0;0.0;
2014_02_23_09_38_18;1393144698609;0.0;0.0;0.0;0.0;0.0;0.0;0.0;0.0;0.0;1.89;0.0;0.0;0.0;0.0;0.0;2.0;0.0;0;0;0;0;0;0;0;0;0;0;0;1000.0;1500.0;1500.0;1500.0;1000.0;1000.0;1000.0;1000.0;0.0;0.0;0.0;0.0;0.0;0.0;0.0;0.0;
2014_02_23_09_38_18;1393144698628;0.0;0.0;0.0;0.0;0.0;0.0;0.0;0.0;0.0;1.89;0.0;0.0;0.0;0.0;0.0;2.0;0.0;0;0;0;0;0;0;0;0;0;0;0;1000.0;1500.0;1500.0;1500.0;1000.0;1000.0;1000.0;1000.0;0.0;0.0;0.0;0.0;0.0;0.0;0.0;0.0;
2014_02_23_09_38_18;1393144698650;0.0;0.0;0.0;0.0;0.0;0.0;0.0;0.0;0.0;1.89;0.0;0.0;0.0;0.0;0.0;2.0;0.0;0;0;0;0;0;0;0;0;0;0;0;1000.0;1500.0;1500.0;1500.0;1000.0;1000.0;1000.0;1000.0;0.0;0.0;0.0;0.0;0.0;0.0;0.0;0.0;
2014_02_23_09_38_18;1393144698660;0.0;0.0;0.0;0.0;0.0;0.0;0.0;0.0;0.0;1.9;0.0;0.0;0.0;0.0;0.0;2.0;0.0;0;0;0;0;0;0;0;0;0;0;0;1000.0;1500.0;1500.0;1500.0;1000.0;1000.0;1000.0;1000.0;0.0;0.0;0.0;0.0;0.0;0.0;0.0;0.0;
2014_02_23_09_38_18;1393144698684;0.0;0.0;0.0;0.0;0.0;0.0;0.0;0.0;0.0;1.91;0.0;0.0;0.0;0.0;0.0;2.0;0.0;0;0;0;0;0;0;0;0;0;0;0;1000.0;1500.0;1500.0;1500.0;1000.0;1000.0;1000.0;1000.0;0.0;0.0;0.0;0.0;0.0;0.0;0.0;0.0;
2014_02_23_09_38_18;1393144698689;0.0;0.0;0.0;0.0;0.0;0.0;0.0;0.0;0.0;1.91;0.0;0.0;0.0;0.0;0.0;2.0;0.0;0;0;0;0;0;0;0;0;0;0;0;1000.0;1500.0;1500.0;1500.0;1000.0;1000.0;1000.0;1000.0;0.0;0.0;0.0;0.0;0.0;0.0;0.0;0.0;
2014_02_23_09_38_18;1393144698711;0.0;0.0;0.0;0.0;0.0;0.0;0.0;0.0;0.0;1.91;0.0;0.0;0.0;0.0;0.0;2.0;0.0;0;0;0;0;0;0;0;0;0;0;0;1000.0;1500.0;1500.0;1500.0;1000.0;1000.0;1000.0;1000.0;0.0;0.0;0.0;0.0;0.0;0.0;0.0;0.0;
2014_02_23_09_38_18;1393144698768;0.0;0.0;0.0;0.0;0.0;0.0;0.0;0.0;0.0;1.91;0.0;0.0;0.0;0.0;0.0;2.0;0.0;0;0;0;0;0;0;0;0;0;0;0;1000.0;1500.0;1500.0;1500.0;1000.0;1000.0;1000.0;1000.0;0.0;0.0;0.0;0.0;0.0;0.0;0.0;0.0;
2014_02_23_09_38_18;1393144698778;0.0;0.0;0.0;0.0;0.0;0.0;0.0;0.0;0.0;1.91;0.0;0.0;0.0;0.0;0.0;2.0;0.0;0;0;0;0;0;0;0;0;0;0;0;1000.0;1500.0;1500.0;1500.0;1000.0;1000.0;1000.0;1000.0;0.0;0.0;0.0;0.0;0.0;0.0;0.0;0.0;
2014_02_23_09_38_18;1393144698814;0.0;0.0;0.0;0.0;0.0;0.0;0.0;0.0;0.0;1.91;0.0;0.0;0.0;0.0;0.0;2.0;0.0;0;0;0;0;0;0;0;0;0;0;0;1000.0;1500.0;1500.0;1500.0;1000.0;1000.0;1000.0;1000.0;0.0;0.0;0.0;0.0;0.0;0.0;0.0;0.0;
2014_02_23_09_38_18;1393144698834;0.0;0.0;0.0;0.0;0.0;0.0;0.0;0.0;0.0;1.93;0.0;0.0;0.0;0.0;0.0;2.0;0.0;0;0;0;0;0;0;0;0;0;0;0;1000.0;1500.0;1500.0;1500.0;1000.0;1000.0;1000.0;1000.0;0.0;0.0;0.0;0.0;0.0;0.0;0.0;0.0;
2014_02_23_09_38_18;1393144698851;0.0;0.0;0.0;0.0;0.0;0.0;0.0;0.0;0.0;1.93;0.0;0.0;0.0;0.0;0.0;2.0;0.0;0;0;0;0;0;0;0;0;0;0;0;1000.0;1500.0;1500.0;1500.0;1000.0;1000.0;1000.0;1000.0;0.0;0.0;0.0;0.0;0.0;0.0;0.0;0.0;
2014_02_23_09_38_18;1393144698872;0.0;0.0;0.0;0.0;0.0;0.0;0.0;0.0;0.0;1.93;0.0;0.0;0.0;0.0;0.0;2.0;0.0;0;0;0;0;0;0;0;0;0;0;0;1000.0;1500.0;1500.0;1500.0;1000.0;1000.0;1000.0;1000.0;0.0;0.0;0.0;0.0;0.0;0.0;0.0;0.0;
2014_02_23_09_38_18;1393144698899;0.0;0.0;0.0;0.0;0.0;0.0;0.0;0.0;0.0;1.93;0.0;0.0;0.0;0.0;0.0;2.0;0.0;0;0;0;0;0;0;0;0;0;0;0;1000.0;1500.0;1500.0;1500.0;1000.0;1000.0;1000.0;1000.0;0.0;0.0;0.0;0.0;0.0;0.0;0.0;0.0;
2014_02_23_09_38_18;1393144698918;0.0;0.0;0.0;0.0;0.0;0.0;0.0;0.0;0.0;1.93;0.0;0.0;0.0;0.0;0.0;2.0;0.0;0;0;0;0;0;0;0;0;0;0;0;1000.0;1500.0;1500.0;1500.0;1000.0;1000.0;1000.0;1000.0;0.0;0.0;0.0;0.0;0.0;0.0;0.0;0.0;
2014_02_23_09_38_18;1393144698939;0.0;0.0;0.0;0.0;0.0;0.0;0.0;0.0;0.0;1.93;0.0;0.0;0.0;0.0;0.0;2.0;0.0;0;0;0;0;0;0;0;0;0;0;0;1000.0;1500.0;1500.0;1500.0;1000.0;1000.0;1000.0;1000.0;0.0;0.0;0.0;0.0;0.0;0.0;0.0;0.0;
2014_02_23_09_38_18;1393144698961;0.0;0.0;0.0;0.0;0.0;0.0;0.0;0.0;0.0;1.94;0.0;0.0;0.0;0.0;0.0;2.0;0.0;0;0;0;0;0;0;0;0;0;0;0;1000.0;1500.0;1500.0;1500.0;1000.0;1000.0;1000.0;1000.0;0.0;0.0;0.0;0.0;0.0;0.0;0.0;0.0;
2014_02_23_09_38_18;1393144698986;0.0;0.0;0.0;0.0;0.0;0.0;0.0;0.0;0.0;1.94;0.0;0.0;0.0;0.0;0.0;2.0;0.0;0;0;0;0;0;0;0;0;0;0;0;1000.0;1500.0;1500.0;1500.0;1000.0;1000.0;1000.0;1000.0;0.0;0.0;0.0;0.0;0.0;0.0;0.0;0.0;
2014_02_23_09_38_19;1393144699011;0.0;0.0;0.0;0.0;0.0;0.0;0.0;0.0;0.0;1.95;0.0;0.0;0.0;0.0;0.0;2.0;0.0;0;0;0;0;0;0;0;0;0;0;0;1000.0;1500.0;1500.0;1500.0;1000.0;1000.0;1000.0;1000.0;0.0;0.0;0.0;0.0;0.0;0.0;0.0;0.0;
2014_02_23_09_38_19;1393144699015;0.0;0.0;0.0;0.0;0.0;0.0;0.0;0.0;0.0;1.95;0.0;0.0;0.0;0.0;0.0;2.0;0.0;0;0;0;0;0;0;0;0;0;0;0;1000.0;1500.0;1500.0;1500.0;1000.0;1000.0;1000.0;1000.0;0.0;0.0;0.0;0.0;0.0;0.0;0.0;0.0;
2014_02_23_09_38_19;1393144699030;0.0;0.0;0.0;0.0;0.0;0.0;0.0;0.0;0.0;1.95;0.0;0.0;0.0;0.0;0.0;2.0;0.0;0;0;0;0;0;0;0;0;0;0;0;1000.0;1500.0;1500.0;1500.0;1000.0;1000.0;1000.0;1000.0;0.0;0.0;0.0;0.0;0.0;0.0;0.0;0.0;
2014_02_23_09_38_19;1393144699039;0.0;0.0;0.0;0.0;0.0;0.0;0.0;0.0;0.0;1.95;0.0;0.0;0.0;0.0;0.0;2.0;0.0;0;0;0;0;0;0;0;0;0;0;0;1000.0;1500.0;1500.0;1500.0;1000.0;1000.0;1000.0;1000.0;0.0;0.0;0.0;0.0;0.0;0.0;0.0;0.0;
2014_02_23_09_38_19;1393144699052;0.0;0.0;0.0;0.0;0.0;0.0;0.0;0.0;0.0;1.95;0.0;0.0;0.0;0.0;0.0;2.0;0.0;0;0;0;0;0;0;0;0;0;0;0;1000.0;1500.0;1500.0;1500.0;1000.0;1000.0;1000.0;1000.0;0.0;0.0;0.0;0.0;0.0;0.0;0.0;0.0;
2014_02_23_09_38_19;1393144699058;0.0;0.0;0.0;0.0;0.0;0.0;0.0;0.0;0.0;1.95;0.0;0.0;0.0;0.0;0.0;2.0;0.0;0;0;0;0;0;0;0;0;0;0;0;1000.0;1500.0;1500.0;1500.0;1000.0;1000.0;1000.0;1000.0;0.0;0.0;0.0;0.0;0.0;0.0;0.0;0.0;
2014_02_23_09_38_19;1393144699074;0.0;0.0;0.0;0.0;0.0;0.0;0.0;0.0;0.0;1.95;0.0;0.0;0.0;0.0;0.0;2.0;0.0;0;0;0;0;0;0;0;0;0;0;0;1000.0;1500.0;1500.0;1500.0;1000.0;1000.0;1000.0;1000.0;0.0;0.0;0.0;0.0;0.0;0.0;0.0;0.0;
2014_02_23_09_38_19;1393144699101;0.0;0.0;0.0;0.0;0.0;0.0;0.0;0.0;0.0;1.95;0.0;0.0;0.0;0.0;0.0;2.0;0.0;0;0;0;0;0;0;0;0;0;0;0;1000.0;1500.0;1500.0;1500.0;1000.0;1000.0;1000.0;1000.0;0.0;0.0;0.0;0.0;0.0;0.0;0.0;0.0;
2014_02_23_09_38_19;1393144699269;0.0;0.0;0.0;0.0;0.0;0.0;0.0;0.0;0.0;1.95;0.0;0.0;0.0;0.0;0.0;2.0;0.0;0;0;0;0;0;0;0;0;0;0;0;1500.0;1500.0;1500.0;1500.0;1500.0;1500.0;1500.0;1500.0;0.0;0.0;0.0;0.0;0.0;0.0;0.0;0.0;
2014_02_23_09_38_19;1393144699273;0.0;0.0;0.0;0.0;0.0;0.0;0.0;0.0;0.0;1.95;0.0;0.0;0.0;0.0;0.0;2.0;0.0;0;0;0;0;0;0;0;0;0;0;0;1500.0;1500.0;1500.0;1500.0;1500.0;1500.0;1500.0;1500.0;0.0;0.0;0.0;0.0;0.0;0.0;0.0;0.0;
2014_02_23_09_38_19;1393144699276;0.0;0.0;0.0;0.0;0.0;0.0;0.0;0.0;0.0;1.95;0.0;0.0;0.0;0.0;0.0;2.0;0.0;0;0;0;0;0;0;0;0;0;0;0;1500.0;1500.0;1500.0;1500.0;1500.0;1500.0;1500.0;1500.0;0.0;0.0;0.0;0.0;0.0;0.0;0.0;0.0;
2014_02_23_09_38_19;1393144699308;0.0;0.0;0.0;0.0;0.0;0.0;0.0;0.0;0.0;1.95;0.0;0.0;0.0;0.0;0.0;2.0;0.0;0;0;0;0;0;0;0;0;0;0;0;1500.0;1500.0;1500.0;1500.0;1500.0;1500.0;1500.0;1500.0;0.0;0.0;0.0;0.0;0.0;0.0;0.0;0.0;
2014_02_23_09_38_19;1393144699332;0.0;0.0;0.0;0.0;0.0;0.0;0.0;0.0;0.0;1.95;0.0;0.0;0.0;0.0;0.0;2.0;0.0;0;0;0;0;0;0;0;0;0;0;0;1000.0;1500.0;1500.0;1500.0;1000.0;1000.0;1000.0;1000.0;0.0;0.0;0.0;0.0;0.0;0.0;0.0;0.0;
2014_02_23_09_38_19;1393144699348;0.0;0.0;0.0;0.0;0.0;0.0;0.0;0.0;0.0;1.95;0.0;0.0;0.0;0.0;0.0;2.0;0.0;0;0;0;0;0;0;0;0;0;0;0;1000.0;1500.0;1500.0;1500.0;1000.0;1000.0;1000.0;1000.0;0.0;0.0;0.0;0.0;0.0;0.0;0.0;0.0;
2014_02_23_09_38_19;1393144699353;0.0;0.0;0.0;0.0;0.0;0.0;0.0;0.0;0.0;1.95;0.0;0.0;0.0;0.0;0.0;2.0;0.0;0;0;0;0;0;0;0;0;0;0;0;1000.0;1500.0;1500.0;1500.0;1000.0;1000.0;1000.0;1000.0;0.0;0.0;0.0;0.0;0.0;0.0;0.0;0.0;
2014_02_23_09_38_19;1393144699378;0.0;0.0;0.0;0.0;0.0;0.0;0.0;0.0;0.0;1.95;0.0;0.0;0.0;0.0;0.0;2.0;0.0;0;0;0;0;0;0;0;0;0;0;0;1000.0;1500.0;1500.0;1500.0;1000.0;1000.0;1000.0;1000.0;0.0;0.0;0.0;0.0;0.0;0.0;0.0;0.0;
2014_02_23_09_38_19;1393144699381;0.0;0.0;0.0;0.0;0.0;0.0;0.0;0.0;0.0;1.95;0.0;0.0;0.0;0.0;0.0;2.0;0.0;0;0;0;0;0;0;0;0;0;0;0;1000.0;1500.0;1500.0;1500.0;1000.0;1000.0;1000.0;1000.0;0.0;0.0;0.0;0.0;0.0;0.0;0.0;0.0;
2014_02_23_09_38_19;1393144699423;0.0;0.0;0.0;0.0;0.0;0.0;0.0;0.0;0.0;1.95;0.0;0.0;0.0;0.0;0.0;2.0;0.0;0;0;0;0;0;0;0;0;0;0;0;1000.0;1500.0;1500.0;1500.0;1000.0;1000.0;1000.0;1000.0;0.0;0.0;0.0;0.0;0.0;0.0;0.0;0.0;
2014_02_23_09_38_19;1393144699436;0.0;0.0;0.0;0.0;0.0;0.0;0.0;0.0;0.0;1.95;0.0;0.0;0.0;0.0;0.0;2.0;0.0;0;0;0;0;0;0;0;0;0;0;0;1000.0;1500.0;1500.0;1500.0;1000.0;1000.0;1000.0;1000.0;0.0;0.0;0.0;0.0;0.0;0.0;0.0;0.0;
2014_02_23_09_38_19;1393144699466;0.0;0.0;0.0;0.0;0.0;0.0;0.0;0.0;0.0;1.95;0.0;0.0;0.0;0.0;0.0;2.0;0.0;0;0;0;0;0;0;0;0;0;0;0;1000.0;1500.0;1500.0;1500.0;1000.0;1000.0;1000.0;1000.0;0.0;0.0;0.0;0.0;0.0;0.0;0.0;0.0;
2014_02_23_09_38_19;1393144699475;0.0;0.0;0.0;0.0;0.0;0.0;0.0;0.0;0.0;1.95;0.0;0.0;0.0;0.0;0.0;2.0;0.0;0;0;0;0;0;0;0;0;0;0;0;1000.0;1500.0;1500.0;1500.0;1000.0;1000.0;1000.0;1000.0;0.0;0.0;0.0;0.0;0.0;0.0;0.0;0.0;
2014_02_23_09_38_19;1393144699493;0.0;0.0;0.0;0.0;0.0;0.0;0.0;0.0;0.0;1.95;0.0;0.0;0.0;0.0;0.0;2.0;0.0;0;0;0;0;0;0;0;0;0;0;0;1000.0;1500.0;1500.0;1500.0;1000.0;1000.0;1000.0;1000.0;0.0;0.0;0.0;0.0;0.0;0.0;0.0;0.0;
2014_02_23_09_38_19;1393144699513;0.0;0.0;0.0;0.0;0.0;0.0;0.0;0.0;0.0;1.95;0.0;0.0;0.0;0.0;0.0;2.0;0.0;0;0;0;0;0;0;0;0;0;0;0;1000.0;1500.0;1500.0;1500.0;1000.0;1000.0;1000.0;1000.0;0.0;0.0;0.0;0.0;0.0;0.0;0.0;0.0;
2014_02_23_09_38_19;1393144699541;0.0;0.0;0.0;0.0;0.0;0.0;0.0;0.0;0.0;1.95;0.0;0.0;0.0;0.0;0.0;2.0;0.0;0;0;0;0;0;0;0;0;0;0;0;1000.0;1500.0;1500.0;1500.0;1000.0;1000.0;1000.0;1000.0;0.0;0.0;0.0;0.0;0.0;0.0;0.0;0.0;
2014_02_23_09_38_19;1393144699546;0.0;0.0;0.0;0.0;0.0;0.0;0.0;0.0;0.0;1.95;0.0;0.0;0.0;0.0;0.0;2.0;0.0;0;0;0;0;0;0;0;0;0;0;0;1000.0;1500.0;1500.0;1500.0;1000.0;1000.0;1000.0;1000.0;0.0;0.0;0.0;0.0;0.0;0.0;0.0;0.0;
2014_02_23_09_38_19;1393144699572;0.0;0.0;0.0;0.0;0.0;0.0;0.0;0.0;0.0;1.95;0.0;0.0;0.0;0.0;0.0;2.0;0.0;0;0;0;0;0;0;0;0;0;0;0;1000.0;1500.0;1500.0;1500.0;1000.0;1000.0;1000.0;1000.0;0.0;0.0;0.0;0.0;0.0;0.0;0.0;0.0;
2014_02_23_09_38_19;1393144699576;0.0;0.0;0.0;0.0;0.0;0.0;0.0;0.0;0.0;1.95;0.0;0.0;0.0;0.0;0.0;2.0;0.0;0;0;0;0;0;0;0;0;0;0;0;1000.0;1500.0;1500.0;1500.0;1000.0;1000.0;1000.0;1000.0;0.0;0.0;0.0;0.0;0.0;0.0;0.0;0.0;
2014_02_23_09_38_19;1393144699592;0.0;0.0;0.0;0.0;0.0;0.0;0.0;0.0;0.0;1.95;0.0;0.0;0.0;0.0;0.0;2.0;0.0;0;0;0;0;0;0;0;0;0;0;0;1000.0;1500.0;1500.0;1500.0;1000.0;1000.0;1000.0;1000.0;0.0;0.0;0.0;0.0;0.0;0.0;0.0;0.0;
2014_02_23_09_38_19;1393144699610;0.0;0.0;0.0;0.0;0.0;0.0;0.0;0.0;0.0;1.95;0.0;0.0;0.0;0.0;0.0;2.0;0.0;0;0;0;0;0;0;0;0;0;0;0;1000.0;1500.0;1500.0;1500.0;1000.0;1000.0;1000.0;1000.0;0.0;0.0;0.0;0.0;0.0;0.0;0.0;0.0;
2014_02_23_09_38_19;1393144699634;0.0;0.0;0.0;0.0;0.0;0.0;0.0;0.0;0.0;1.95;0.0;0.0;0.0;0.0;0.0;2.0;0.0;0;0;0;0;0;0;0;0;0;0;0;1000.0;1500.0;1500.0;1500.0;1000.0;1000.0;1000.0;1000.0;0.0;0.0;0.0;0.0;0.0;0.0;0.0;0.0;
2014_02_23_09_38_19;1393144699640;0.0;0.0;0.0;0.0;0.0;0.0;0.0;0.0;0.0;1.95;0.0;0.0;0.0;0.0;0.0;2.0;0.0;0;0;0;0;0;0;0;0;0;0;0;1000.0;1500.0;1500.0;1500.0;1000.0;1000.0;1000.0;1000.0;0.0;0.0;0.0;0.0;0.0;0.0;0.0;0.0;
2014_02_23_09_38_19;1393144699675;0.0;0.0;0.0;0.0;0.0;0.0;0.0;0.0;0.0;1.95;0.0;0.0;0.0;0.0;0.0;2.0;0.0;0;0;0;0;0;0;0;0;0;0;0;1000.0;1500.0;1500.0;1500.0;1000.0;1000.0;1000.0;1000.0;0.0;0.0;0.0;0.0;0.0;0.0;0.0;0.0;
2014_02_23_09_38_19;1393144699707;0.0;0.0;0.0;0.0;0.0;0.0;0.0;0.0;0.0;1.95;0.0;0.0;0.0;0.0;0.0;2.0;0.0;0;0;0;0;0;0;0;0;0;0;0;1000.0;1500.0;1500.0;1500.0;1000.0;1000.0;1000.0;1000.0;0.0;0.0;0.0;0.0;0.0;0.0;0.0;0.0;
2014_02_23_09_38_19;1393144699752;0.0;0.0;0.0;0.0;0.0;0.0;0.0;0.0;0.0;1.95;0.0;0.0;0.0;0.0;0.0;2.0;0.0;0;0;0;0;0;0;0;0;0;0;0;1000.0;1500.0;1500.0;1500.0;1000.0;1000.0;1000.0;1000.0;0.0;0.0;0.0;0.0;0.0;0.0;0.0;0.0;
2014_02_23_09_38_19;1393144699773;0.0;0.0;0.0;0.0;0.0;0.0;0.0;0.0;0.0;1.95;0.0;0.0;0.0;0.0;0.0;2.0;0.0;0;0;0;0;0;0;0;0;0;0;0;1000.0;1500.0;1500.0;1500.0;1000.0;1000.0;1000.0;1000.0;0.0;0.0;0.0;0.0;0.0;0.0;0.0;0.0;
2014_02_23_09_38_19;1393144699839;0.0;0.0;0.0;0.0;0.0;0.0;0.0;0.0;0.0;1.95;0.0;0.0;0.0;0.0;0.0;2.0;0.0;0;0;0;0;0;0;0;0;0;0;0;1000.0;1500.0;1500.0;1500.0;1000.0;1000.0;1000.0;1000.0;0.0;0.0;0.0;0.0;0.0;0.0;0.0;0.0;
2014_02_23_09_38_19;1393144699843;0.0;0.0;0.0;0.0;0.0;0.0;0.0;0.0;0.0;1.95;0.0;0.0;0.0;0.0;0.0;2.0;0.0;0;0;0;0;0;0;0;0;0;0;0;1000.0;1500.0;1500.0;1500.0;1000.0;1000.0;1000.0;1000.0;0.0;0.0;0.0;0.0;0.0;0.0;0.0;0.0;
2014_02_23_09_38_19;1393144699845;0.0;0.0;0.0;0.0;0.0;0.0;0.0;0.0;0.0;1.95;0.0;0.0;0.0;0.0;0.0;2.0;0.0;0;0;0;0;0;0;0;0;0;0;0;1000.0;1500.0;1500.0;1500.0;1000.0;1000.0;1000.0;1000.0;0.0;0.0;0.0;0.0;0.0;0.0;0.0;0.0;
2014_02_23_09_38_20;1393144700020;0.0;0.0;0.0;0.0;0.0;0.0;0.0;0.0;0.0;1.95;0.0;0.0;0.0;0.0;0.0;2.0;0.0;0;0;0;0;0;0;0;0;0;0;0;1000.0;1500.0;1500.0;1500.0;1000.0;1000.0;1000.0;1000.0;0.0;0.0;0.0;0.0;0.0;0.0;0.0;0.0;
2014_02_23_09_38_20;1393144700034;0.0;0.0;0.0;0.0;0.0;0.0;0.0;0.0;0.0;1.95;0.0;0.0;0.0;0.0;0.0;2.0;0.0;0;0;0;0;0;0;0;0;0;0;0;1000.0;1500.0;1500.0;1500.0;1000.0;1000.0;1000.0;1000.0;0.0;0.0;0.0;0.0;0.0;0.0;0.0;0.0;
2014_02_23_09_38_20;1393144700045;0.0;0.0;0.0;0.0;0.0;0.0;0.0;0.0;0.0;1.95;0.0;0.0;0.0;0.0;0.0;2.0;0.0;0;0;0;0;0;0;0;0;0;0;0;1000.0;1500.0;1500.0;1500.0;1000.0;1000.0;1000.0;1000.0;0.0;0.0;0.0;0.0;0.0;0.0;0.0;0.0;
2014_02_23_09_38_20;1393144700051;0.0;0.0;0.0;0.0;0.0;0.0;0.0;0.0;0.0;1.95;0.0;0.0;0.0;0.0;0.0;2.0;0.0;0;0;0;0;0;0;0;0;0;0;0;1000.0;1500.0;1500.0;1500.0;1000.0;1000.0;1000.0;1000.0;0.0;0.0;0.0;0.0;0.0;0.0;0.0;0.0;
2014_02_23_09_38_20;1393144700059;0.0;0.0;0.0;0.0;0.0;0.0;0.0;0.0;0.0;1.95;0.0;0.0;0.0;0.0;0.0;2.0;0.0;0;0;0;0;0;0;0;0;0;0;0;1000.0;1500.0;1500.0;1500.0;1000.0;1000.0;1000.0;1000.0;0.0;0.0;0.0;0.0;0.0;0.0;0.0;0.0;
2014_02_23_09_38_20;1393144700071;0.0;0.0;0.0;0.0;0.0;0.0;0.0;0.0;0.0;1.95;0.0;0.0;0.0;0.0;0.0;2.0;0.0;0;0;0;0;0;0;0;0;0;0;0;1500.0;1500.0;1500.0;1500.0;1500.0;1500.0;1500.0;1500.0;0.0;0.0;0.0;0.0;0.0;0.0;0.0;0.0;
2014_02_23_09_38_20;1393144700095;0.0;0.0;0.0;0.0;0.0;0.0;0.0;0.0;0.0;1.95;0.0;0.0;0.0;0.0;0.0;2.0;0.0;0;0;0;0;0;0;0;0;0;0;0;1000.0;1500.0;1500.0;1500.0;1000.0;1000.0;1000.0;1000.0;0.0;0.0;0.0;0.0;0.0;0.0;0.0;0.0;
2014_02_23_09_38_20;1393144700117;0.0;0.0;0.0;0.0;0.0;0.0;0.0;0.0;0.0;1.95;0.0;0.0;0.0;0.0;0.0;2.0;0.0;0;0;0;0;0;0;0;0;0;0;0;1000.0;1500.0;1500.0;1500.0;1000.0;1000.0;1000.0;1000.0;0.0;0.0;0.0;0.0;0.0;0.0;0.0;0.0;
2014_02_23_09_38_20;1393144700120;0.0;0.0;0.0;0.0;0.0;0.0;0.0;0.0;0.0;1.95;0.0;0.0;0.0;0.0;0.0;2.0;0.0;0;0;0;0;0;0;0;0;0;0;0;1000.0;1500.0;1500.0;1500.0;1000.0;1000.0;1000.0;1000.0;0.0;0.0;0.0;0.0;0.0;0.0;0.0;0.0;
2014_02_23_09_38_20;1393144700142;0.0;0.0;0.0;0.0;0.0;0.0;0.0;0.0;0.0;1.95;0.0;0.0;0.0;0.0;0.0;2.0;0.0;0;0;0;0;0;0;0;0;0;0;0;1000.0;1500.0;1500.0;1500.0;1000.0;1000.0;1000.0;1000.0;0.0;0.0;0.0;0.0;0.0;0.0;0.0;0.0;
2014_02_23_09_38_20;1393144700171;0.0;0.0;0.0;0.0;0.0;0.0;0.0;0.0;0.0;1.95;0.0;0.0;0.0;0.0;0.0;2.0;0.0;0;0;0;0;0;0;0;0;0;0;0;1000.0;1500.0;1500.0;1500.0;1000.0;1000.0;1000.0;1000.0;0.0;0.0;0.0;0.0;0.0;0.0;0.0;0.0;
2014_02_23_09_38_20;1393144700192;0.0;0.0;0.0;0.0;0.0;0.0;0.0;0.0;0.0;1.95;0.0;0.0;0.0;0.0;0.0;2.0;0.0;0;0;0;0;0;0;0;0;0;0;0;1000.0;1500.0;1500.0;1500.0;1000.0;1000.0;1000.0;1000.0;0.0;0.0;0.0;0.0;0.0;0.0;0.0;0.0;
2014_02_23_09_38_20;1393144700201;0.0;0.0;0.0;0.0;0.0;0.0;0.0;0.0;0.0;1.95;0.0;0.0;0.0;0.0;0.0;2.0;0.0;0;0;0;0;0;0;0;0;0;0;0;1000.0;1500.0;1500.0;1500.0;1000.0;1000.0;1000.0;1000.0;0.0;0.0;0.0;0.0;0.0;0.0;0.0;0.0;
2014_02_23_09_38_20;1393144700224;0.0;0.0;0.0;0.0;0.0;0.0;0.0;0.0;0.0;1.95;0.0;0.0;0.0;0.0;0.0;2.0;0.0;0;0;0;0;0;0;0;0;0;0;0;1000.0;1500.0;1500.0;1500.0;1000.0;1000.0;1000.0;1000.0;0.0;0.0;0.0;0.0;0.0;0.0;0.0;0.0;
2014_02_23_09_38_20;1393144700229;0.0;0.0;0.0;0.0;0.0;0.0;0.0;0.0;0.0;1.95;0.0;0.0;0.0;0.0;0.0;2.0;0.0;0;0;0;0;0;0;0;0;0;0;0;1000.0;1500.0;1500.0;1500.0;1000.0;1000.0;1000.0;1000.0;0.0;0.0;0.0;0.0;0.0;0.0;0.0;0.0;
2014_02_23_09_38_20;1393144700251;0.0;0.0;0.0;0.0;0.0;0.0;0.0;0.0;0.0;1.95;0.0;0.0;0.0;0.0;0.0;2.0;0.0;0;0;0;0;0;0;0;0;0;0;0;1000.0;1500.0;1500.0;1500.0;1000.0;1000.0;1000.0;1000.0;0.0;0.0;0.0;0.0;0.0;0.0;0.0;0.0;
2014_02_23_09_38_20;1393144700276;0.0;0.0;0.0;0.0;0.0;0.0;0.0;0.0;0.0;1.95;0.0;0.0;0.0;0.0;0.0;2.0;0.0;0;0;0;0;0;0;0;0;0;0;0;1000.0;1500.0;1500.0;1500.0;1000.0;1000.0;1000.0;1000.0;0.0;0.0;0.0;0.0;0.0;0.0;0.0;0.0;
2014_02_23_09_38_20;1393144700298;0.0;0.0;0.0;0.0;0.0;0.0;0.0;0.0;0.0;1.95;0.0;0.0;0.0;0.0;0.0;2.0;0.0;0;0;0;0;0;0;0;0;0;0;0;1000.0;1500.0;1500.0;1500.0;1000.0;1000.0;1000.0;1000.0;0.0;0.0;0.0;0.0;0.0;0.0;0.0;0.0;
2014_02_23_09_38_20;1393144700341;0.0;0.0;0.0;0.0;0.0;0.0;0.0;0.0;0.0;1.95;0.0;0.0;0.0;0.0;0.0;2.0;0.0;0;0;0;0;0;0;0;0;0;0;0;1000.0;1500.0;1500.0;1500.0;1000.0;1000.0;1000.0;1000.0;0.0;0.0;0.0;0.0;0.0;0.0;0.0;0.0;
2014_02_23_09_38_20;1393144700344;0.0;0.0;0.0;0.0;0.0;0.0;0.0;0.0;0.0;1.95;0.0;0.0;0.0;0.0;0.0;2.0;0.0;0;0;0;0;0;0;0;0;0;0;0;1000.0;1500.0;1500.0;1500.0;1000.0;1000.0;1000.0;1000.0;0.0;0.0;0.0;0.0;0.0;0.0;0.0;0.0;
2014_02_23_09_38_20;1393144700395;0.0;0.0;0.0;0.0;0.0;0.0;0.0;0.0;0.0;1.95;0.0;0.0;0.0;0.0;0.0;2.0;0.0;0;0;0;0;0;0;0;0;0;0;0;1000.0;1500.0;1500.0;1500.0;1000.0;1000.0;1000.0;1000.0;0.0;0.0;0.0;0.0;0.0;0.0;0.0;0.0;
2014_02_23_09_38_20;1393144700400;0.0;0.0;0.0;0.0;0.0;0.0;0.0;0.0;0.0;1.95;0.0;0.0;0.0;0.0;0.0;2.0;0.0;0;0;0;0;0;0;0;0;0;0;0;1000.0;1500.0;1500.0;1500.0;1000.0;1000.0;1000.0;1000.0;0.0;0.0;0.0;0.0;0.0;0.0;0.0;0.0;
2014_02_23_09_38_20;1393144700412;0.0;0.0;0.0;0.0;0.0;0.0;0.0;0.0;0.0;1.95;0.0;0.0;0.0;0.0;0.0;2.0;0.0;0;0;0;0;0;0;0;0;0;0;0;1000.0;1500.0;1500.0;1500.0;1000.0;1000.0;1000.0;1000.0;0.0;0.0;0.0;0.0;0.0;0.0;0.0;0.0;
2014_02_23_09_38_20;1393144700569;0.0;0.0;0.0;0.0;0.0;0.0;0.0;0.0;0.0;1.95;0.0;0.0;0.0;0.0;0.0;2.0;0.0;0;0;0;0;0;0;0;0;0;0;0;1000.0;1500.0;1500.0;1500.0;1000.0;1000.0;1000.0;1000.0;0.0;0.0;0.0;0.0;0.0;0.0;0.0;0.0;
2014_02_23_09_38_20;1393144700588;0.0;0.0;0.0;0.0;0.0;0.0;0.0;0.0;0.0;1.95;0.0;0.0;0.0;0.0;0.0;2.0;0.0;0;0;0;0;0;0;0;0;0;0;0;1000.0;1500.0;1500.0;1500.0;1000.0;1000.0;1000.0;1000.0;0.0;0.0;0.0;0.0;0.0;0.0;0.0;0.0;
2014_02_23_09_38_20;1393144700798;0.0;0.0;0.0;0.0;0.0;0.0;0.0;0.0;0.0;1.95;0.0;0.0;0.0;0.0;0.0;2.0;0.0;0;0;0;0;0;0;0;0;0;0;0;1000.0;1500.0;1442.0;1504.0;1000.0;1000.0;1000.0;1000.0;0.0;0.0;0.0;0.0;0.0;0.0;0.0;0.0;
2014_02_23_09_38_20;1393144700837;0.0;0.0;0.0;0.0;0.0;0.0;0.0;0.0;0.0;1.95;0.0;0.0;0.0;0.0;0.0;2.0;0.0;0;0;0;0;0;0;0;0;0;0;0;1000.0;1500.0;1458.0;1500.0;1000.0;1000.0;1000.0;1000.0;0.0;0.0;0.0;0.0;0.0;0.0;0.0;0.0;
2014_02_23_09_38_20;1393144700934;0.0;0.0;0.0;0.0;0.0;0.0;0.0;0.0;0.0;1.95;0.0;0.0;0.0;0.0;0.0;2.0;0.0;0;0;0;0;0;0;0;0;0;0;0;1000.0;1500.0;1539.0;1504.0;1000.0;1000.0;1000.0;1000.0;0.0;0.0;0.0;0.0;0.0;0.0;0.0;0.0;
2014_02_23_09_38_21;1393144701018;0.0;0.0;0.0;0.0;0.0;0.0;0.0;0.0;0.0;1.95;0.0;0.0;0.0;0.0;0.0;2.0;0.0;0;0;0;0;0;0;0;0;0;0;0;1000.0;1500.0;1540.0;1468.0;1000.0;1000.0;1000.0;1000.0;0.0;0.0;0.0;0.0;0.0;0.0;0.0;0.0;
2014_02_23_09_38_21;1393144701182;0.0;0.0;0.0;0.0;0.0;0.0;0.0;0.0;0.0;1.95;0.0;0.0;0.0;0.0;0.0;2.0;0.0;0;0;0;0;0;0;0;0;0;0;0;1000.0;1500.0;1500.0;1450.0;1000.0;1000.0;1000.0;1000.0;0.0;0.0;0.0;0.0;0.0;0.0;0.0;0.0;
2014_02_23_09_38_21;1393144701203;0.0;0.0;0.0;0.0;0.0;0.0;0.0;0.0;0.0;1.95;0.0;0.0;0.0;0.0;0.0;2.0;0.0;0;0;0;0;0;0;0;0;0;0;0;1000.0;1500.0;1500.0;1450.0;1000.0;1000.0;1000.0;1000.0;0.0;0.0;0.0;0.0;0.0;0.0;0.0;0.0;
2014_02_23_09_38_21;1393144701251;0.0;0.0;0.0;0.0;0.0;0.0;0.0;0.0;0.0;1.95;0.0;0.0;0.0;0.0;0.0;2.0;0.0;0;0;0;0;0;0;0;0;0;0;0;1000.0;1500.0;1500.0;1450.0;1000.0;1000.0;1000.0;1000.0;0.0;0.0;0.0;0.0;0.0;0.0;0.0;0.0;
2014_02_23_09_38_21;1393144701568;0.0;0.0;0.0;0.0;0.0;0.0;0.0;0.0;0.0;1.95;0.0;0.0;0.0;0.0;0.0;2.0;0.0;0;0;0;0;0;0;0;0;0;0;0;1000.0;1500.0;1483.0;1467.0;1000.0;1000.0;1000.0;1000.0;0.0;0.0;0.0;0.0;0.0;0.0;0.0;0.0;
2014_02_23_09_38_21;1393144701607;0.0;0.0;0.0;0.0;0.0;0.0;0.0;0.0;0.0;1.95;0.0;0.0;0.0;0.0;0.0;2.0;0.0;0;0;0;0;0;0;0;0;0;0;0;1000.0;1500.0;1483.0;1467.0;1000.0;1000.0;1000.0;1000.0;0.0;0.0;0.0;0.0;0.0;0.0;0.0;0.0;
2014_02_23_09_38_21;1393144701690;0.0;0.0;0.0;0.0;0.0;0.0;0.0;0.0;0.0;1.95;0.0;0.0;0.0;0.0;0.0;2.0;0.0;0;0;0;0;0;0;0;0;0;0;0;1000.0;1500.0;1483.0;1521.0;1000.0;1000.0;1000.0;1000.0;0.0;0.0;0.0;0.0;0.0;0.0;0.0;0.0;
2014_02_23_09_38_21;1393144701776;0.0;0.0;0.0;0.0;0.0;0.0;0.0;0.0;0.0;1.95;0.0;0.0;0.0;0.0;0.0;2.0;0.0;0;0;0;0;0;0;0;0;0;0;0;1000.0;1500.0;1483.0;1521.0;1000.0;1000.0;1000.0;1000.0;0.0;0.0;0.0;0.0;0.0;0.0;0.0;0.0;
2014_02_23_09_38_21;1393144701939;0.0;0.0;0.0;0.0;0.0;0.0;0.0;0.0;0.0;1.95;0.0;0.0;0.0;0.0;0.0;2.0;0.0;0;0;0;0;0;0;0;0;0;0;0;1000.0;1500.0;1518.0;1482.0;1000.0;1000.0;1000.0;1000.0;0.0;0.0;0.0;0.0;0.0;0.0;0.0;0.0;
2014_02_23_09_38_21;1393144701954;0.0;0.0;0.0;0.0;0.0;0.0;0.0;0.0;0.0;1.95;0.0;0.0;0.0;0.0;0.0;2.0;0.0;0;0;0;0;0;0;0;0;0;0;0;1000.0;1500.0;1518.0;1482.0;1000.0;1000.0;1000.0;1000.0;0.0;0.0;0.0;0.0;0.0;0.0;0.0;0.0;
2014_02_23_09_38_22;1393144702003;0.0;0.0;0.0;0.0;0.0;0.0;0.0;0.0;0.0;1.95;0.0;0.0;0.0;0.0;0.0;2.0;0.0;0;0;0;0;0;0;0;0;0;0;0;1000.0;1500.0;1518.0;1482.0;1000.0;1000.0;1000.0;1000.0;0.0;0.0;0.0;0.0;0.0;0.0;0.0;0.0;
2014_02_23_09_38_22;1393144702078;0.0;0.0;0.0;0.0;0.0;0.0;0.0;0.0;0.0;1.95;0.0;0.0;0.0;0.0;0.0;2.0;0.0;0;0;0;0;0;0;0;0;0;0;0;1000.0;1500.0;1522.0;1495.0;1000.0;1000.0;1000.0;1000.0;0.0;0.0;0.0;0.0;0.0;0.0;0.0;0.0;
2014_02_23_09_38_22;1393144702208;0.0;0.0;0.0;0.0;0.0;0.0;0.0;0.0;0.0;1.95;0.0;0.0;0.0;0.0;0.0;2.0;0.0;0;0;0;0;0;0;0;0;0;0;0;1000.0;1500.0;1558.0;1486.0;1000.0;1000.0;1000.0;1000.0;0.0;0.0;0.0;0.0;0.0;0.0;0.0;0.0;
2014_02_23_09_38_22;1393144702342;0.0;0.0;0.0;0.0;0.0;0.0;0.0;0.0;0.0;1.95;0.0;0.0;0.0;0.0;0.0;2.0;0.0;0;0;0;0;0;0;0;0;0;0;0;1000.0;1500.0;1518.0;1536.0;1000.0;1000.0;1000.0;1000.0;0.0;0.0;0.0;0.0;0.0;0.0;0.0;0.0;
2014_02_23_09_38_22;1393144702532;0.0;0.0;0.0;0.0;0.0;0.0;0.0;0.0;0.0;1.95;0.0;0.0;0.0;0.0;0.0;2.0;0.0;0;0;0;0;0;0;0;0;0;0;0;1000.0;1500.0;1549.0;1519.0;1000.0;1000.0;1000.0;1000.0;0.0;0.0;0.0;0.0;0.0;0.0;0.0;0.0;
2014_02_23_09_38_22;1393144702537;0.0;0.0;0.0;0.0;0.0;0.0;0.0;0.0;0.0;1.95;0.0;0.0;0.0;0.0;0.0;2.0;0.0;0;0;0;0;0;0;0;0;0;0;0;1000.0;1500.0;1549.0;1519.0;1000.0;1000.0;1000.0;1000.0;0.0;0.0;0.0;0.0;0.0;0.0;0.0;0.0;
2014_02_23_09_38_23;1393144703132;0.0;0.0;0.0;0.0;0.0;0.0;0.0;0.0;0.0;1.92;0.0;0.0;0.0;0.0;0.0;2.0;0.0;0;0;0;0;0;0;0;0;0;0;0;1000.0;1500.0;1475.0;1509.0;2000.0;1000.0;1000.0;1000.0;0.0;0.0;0.0;0.0;0.0;0.0;0.0;0.0;
2014_02_23_09_38_23;1393144703141;0.0;0.0;0.0;0.0;0.0;0.0;0.0;0.0;0.0;1.92;0.0;0.0;0.0;0.0;0.0;2.0;0.0;0;0;0;0;0;0;0;0;0;0;0;1000.0;1500.0;1475.0;1509.0;2000.0;1000.0;1000.0;1000.0;0.0;0.0;0.0;0.0;0.0;0.0;0.0;0.0;
2014_02_23_09_38_23;1393144703285;0.0;0.0;0.0;0.0;0.0;0.0;0.0;0.0;0.0;1.92;0.0;0.0;0.0;0.0;0.0;2.0;0.0;0;0;0;0;0;0;0;0;0;0;0;1000.0;1500.0;1476.0;1495.0;2000.0;1000.0;1000.0;1000.0;0.0;0.0;0.0;0.0;0.0;0.0;0.0;0.0;
2014_02_23_09_38_23;1393144703331;0.0;0.0;0.0;0.0;0.0;0.0;0.0;0.0;0.0;1.92;0.0;0.0;0.0;0.0;0.0;2.0;0.0;0;0;0;0;0;0;0;0;0;0;0;1000.0;1500.0;1476.0;1495.0;2000.0;1000.0;1000.0;1000.0;0.0;0.0;0.0;0.0;0.0;0.0;0.0;0.0;
2014_02_23_09_38_23;1393144703430;0.0;0.0;0.0;0.0;0.0;0.0;0.0;0.0;0.0;1.92;0.0;0.0;0.0;0.0;0.0;2.0;0.0;0;0;0;0;0;0;0;0;0;0;0;1000.0;1500.0;1453.0;1495.0;2000.0;1000.0;1000.0;1000.0;0.0;0.0;0.0;0.0;0.0;0.0;0.0;0.0;
2014_02_23_09_38_23;1393144703498;0.0;0.0;0.0;0.0;0.0;0.0;0.0;0.0;0.0;1.92;0.0;0.0;0.0;0.0;0.0;2.0;0.0;0;0;0;0;0;0;0;0;0;0;0;1000.0;1500.0;1453.0;1495.0;2000.0;1000.0;1000.0;1000.0;0.0;0.0;0.0;0.0;0.0;0.0;0.0;0.0;
2014_02_23_09_38_23;1393144703589;0.0;0.0;0.0;0.0;0.0;0.0;0.0;0.0;0.0;1.92;0.0;0.0;0.0;0.0;0.0;2.0;0.0;0;0;0;0;0;0;0;0;0;0;0;1000.0;1500.0;1504.0;1519.0;2000.0;1000.0;1000.0;1000.0;0.0;0.0;0.0;0.0;0.0;0.0;0.0;0.0;
2014_02_23_09_38_23;1393144703803;0.0;0.0;0.0;0.0;0.0;0.0;0.0;0.0;0.0;1.92;0.0;0.0;0.0;0.0;0.0;2.0;0.0;0;0;0;0;0;0;0;0;0;0;0;1000.0;1500.0;1495.0;1504.0;2000.0;1000.0;1000.0;1000.0;0.0;0.0;0.0;0.0;0.0;0.0;0.0;0.0;
2014_02_23_09_38_23;1393144703839;0.0;0.0;0.0;0.0;0.0;0.0;0.0;0.0;0.0;1.92;0.0;0.0;0.0;0.0;0.0;2.0;0.0;0;0;0;0;0;0;0;0;0;0;0;1000.0;1500.0;1495.0;1504.0;2000.0;1000.0;1000.0;1000.0;0.0;0.0;0.0;0.0;0.0;0.0;0.0;0.0;
2014_02_23_09_38_23;1393144703931;0.0;0.0;0.0;0.0;0.0;0.0;0.0;0.0;0.0;1.92;0.0;0.0;0.0;0.0;0.0;2.0;0.0;0;0;0;0;0;0;0;0;0;0;0;1000.0;1500.0;1475.0;1534.0;2000.0;1000.0;1000.0;1000.0;0.0;0.0;0.0;0.0;0.0;0.0;0.0;0.0;
2014_02_23_09_38_24;1393144704006;0.0;0.0;0.0;0.0;0.0;0.0;0.0;0.0;0.0;1.92;0.0;0.0;0.0;0.0;0.0;2.0;0.0;0;0;0;0;0;0;0;0;0;0;0;1000.0;1500.0;1486.0;1533.0;2000.0;1000.0;1000.0;1000.0;0.0;0.0;0.0;0.0;0.0;0.0;0.0;0.0;
2014_02_23_09_38_24;1393144704070;0.0;0.0;0.0;0.0;0.0;0.0;0.0;0.0;0.0;1.92;0.0;0.0;0.0;0.0;0.0;2.0;0.0;0;0;0;0;0;0;0;0;0;0;0;1000.0;1500.0;1491.0;1518.0;2000.0;1000.0;1000.0;1000.0;0.0;0.0;0.0;0.0;0.0;0.0;0.0;0.0;
2014_02_23_09_38_24;1393144704141;0.0;0.0;0.0;0.0;0.0;0.0;0.0;0.0;0.0;1.92;0.0;0.0;0.0;0.0;0.0;2.0;0.0;0;0;0;0;0;0;0;0;0;0;0;1000.0;1500.0;1486.0;1518.0;2000.0;1000.0;1000.0;1000.0;0.0;0.0;0.0;0.0;0.0;0.0;0.0;0.0;
2014_02_23_09_38_24;1393144704216;0.0;0.0;0.0;0.0;0.0;0.0;0.0;0.0;0.0;1.92;0.0;0.0;0.0;0.0;0.0;2.0;0.0;0;0;0;0;0;0;0;0;0;0;0;1000.0;1500.0;1486.0;1518.0;2000.0;1000.0;1000.0;1000.0;0.0;0.0;0.0;0.0;0.0;0.0;0.0;0.0;
2014_02_23_09_38_24;1393144704448;0.0;0.0;0.0;0.0;0.0;0.0;0.0;0.0;0.0;1.92;0.0;0.0;0.0;0.0;0.0;2.0;0.0;0;0;0;0;0;0;0;0;0;0;0;1010.0;1500.0;1495.0;1522.0;2000.0;1000.0;1000.0;1000.0;0.0;0.0;0.0;0.0;0.0;0.0;0.0;0.0;
2014_02_23_09_38_24;1393144704478;0.0;0.0;0.0;0.0;0.0;0.0;0.0;0.0;0.0;1.92;0.0;0.0;0.0;0.0;0.0;2.0;0.0;0;0;0;0;0;0;0;0;0;0;0;1010.0;1500.0;1495.0;1522.0;2000.0;1000.0;1000.0;1000.0;0.0;0.0;0.0;0.0;0.0;0.0;0.0;0.0;
2014_02_23_09_38_24;1393144704804;0.0;0.0;0.0;0.0;0.0;0.0;0.0;0.0;0.0;1.92;0.0;0.0;0.0;0.0;0.0;2.0;0.0;0;0;0;0;0;0;0;0;0;0;0;1010.0;1500.0;1495.0;1527.0;2000.0;1000.0;1000.0;1000.0;0.0;0.0;0.0;0.0;0.0;0.0;0.0;0.0;
2014_02_23_09_38_24;1393144704975;0.0;0.0;0.0;0.0;0.0;0.0;0.0;0.0;0.0;1.94;0.0;0.0;0.0;0.0;0.0;2.0;0.0;0;0;0;0;0;0;0;0;0;0;0;1020.0;1500.0;1482.0;1530.0;2000.0;1000.0;1000.0;1000.0;0.0;0.0;0.0;0.0;0.0;0.0;0.0;0.0;
2014_02_23_09_38_25;1393144705049;0.0;0.0;0.0;0.0;0.0;0.0;0.0;0.0;0.0;1.94;0.0;0.0;0.0;0.0;0.0;2.0;0.0;0;0;0;0;0;0;0;0;0;0;0;1020.0;1500.0;1490.0;1529.0;2000.0;1000.0;1000.0;1000.0;0.0;0.0;0.0;0.0;0.0;0.0;0.0;0.0;
2014_02_23_09_38_25;1393144705255;0.0;0.0;0.0;0.0;0.0;0.0;0.0;0.0;0.0;1.94;0.0;0.0;0.0;0.0;0.0;2.0;0.0;0;0;0;0;0;0;0;0;0;0;0;1030.0;1500.0;1470.0;1524.0;2000.0;1000.0;1000.0;1000.0;0.0;0.0;0.0;0.0;0.0;0.0;0.0;0.0;
2014_02_23_09_38_25;1393144705270;0.0;0.0;0.0;0.0;0.0;0.0;0.0;0.0;0.0;1.94;0.0;0.0;0.0;0.0;0.0;2.0;0.0;0;0;0;0;0;0;0;0;0;0;0;1030.0;1500.0;1470.0;1524.0;2000.0;1000.0;1000.0;1000.0;0.0;0.0;0.0;0.0;0.0;0.0;0.0;0.0;
2014_02_23_09_38_25;1393144705298;0.0;0.0;0.0;0.0;0.0;0.0;0.0;0.0;0.0;1.94;0.0;0.0;0.0;0.0;0.0;2.0;0.0;0;0;0;0;0;0;0;0;0;0;0;1030.0;1500.0;1470.0;1524.0;2000.0;1000.0;1000.0;1000.0;0.0;0.0;0.0;0.0;0.0;0.0;0.0;0.0;
2014_02_23_09_38_25;1393144705474;0.0;0.0;0.0;0.0;0.0;0.0;0.0;0.0;0.0;1.94;0.0;0.0;0.0;0.0;0.0;2.0;0.0;0;0;0;0;0;0;0;0;0;0;0;1030.0;1500.0;1491.0;1522.0;2000.0;1000.0;1000.0;1000.0;0.0;0.0;0.0;0.0;0.0;0.0;0.0;0.0;
2014_02_23_09_38_25;1393144705498;0.0;0.0;0.0;0.0;0.0;0.0;0.0;0.0;0.0;1.94;0.0;0.0;0.0;0.0;0.0;2.0;0.0;0;0;0;0;0;0;0;0;0;0;0;1030.0;1500.0;1491.0;1522.0;2000.0;1000.0;1000.0;1000.0;0.0;0.0;0.0;0.0;0.0;0.0;0.0;0.0;
2014_02_23_09_38_25;1393144705875;0.0;0.0;0.0;0.0;0.0;0.0;0.0;0.0;0.0;1.94;0.0;0.0;0.0;0.0;0.0;2.0;0.0;0;0;0;0;0;0;0;0;0;0;0;1030.0;1500.0;1465.0;1530.0;2000.0;1000.0;1000.0;1000.0;0.0;0.0;0.0;0.0;0.0;0.0;0.0;0.0;
2014_02_23_09_38_25;1393144705905;0.0;0.0;0.0;0.0;0.0;0.0;0.0;0.0;0.0;1.94;0.0;0.0;0.0;0.0;0.0;2.0;0.0;0;0;0;0;0;0;0;0;0;0;0;1030.0;1500.0;1465.0;1530.0;2000.0;1000.0;1000.0;1000.0;0.0;0.0;0.0;0.0;0.0;0.0;0.0;0.0;
2014_02_23_09_38_26;1393144706022;0.0;0.0;0.0;0.0;0.0;0.0;0.0;0.0;0.0;1.94;0.0;0.0;0.0;0.0;0.0;2.0;0.0;0;0;0;0;0;0;0;0;0;0;0;1500.0;1500.0;1465.0;1530.0;1504.0;1500.0;1500.0;1500.0;0.0;0.0;0.0;0.0;0.0;0.0;0.0;0.0;
2014_02_23_09_38_26;1393144706216;0.0;0.0;0.0;0.0;0.0;0.0;0.0;0.0;0.0;1.94;0.0;0.0;0.0;0.0;0.0;2.0;0.0;0;0;0;0;0;0;0;0;0;0;0;1050.0;1500.0;1521.0;1521.0;2000.0;1000.0;1000.0;1000.0;0.0;0.0;0.0;0.0;0.0;0.0;0.0;0.0;
2014_02_23_09_38_26;1393144706229;0.0;0.0;0.0;0.0;0.0;0.0;0.0;0.0;0.0;1.94;0.0;0.0;0.0;0.0;0.0;2.0;0.0;0;0;0;0;0;0;0;0;0;0;0;1050.0;1500.0;1521.0;1521.0;2000.0;1000.0;1000.0;1000.0;0.0;0.0;0.0;0.0;0.0;0.0;0.0;0.0;
2014_02_23_09_38_26;1393144706279;0.0;0.0;0.0;0.0;0.0;0.0;0.0;0.0;0.0;1.94;0.0;0.0;0.0;0.0;0.0;2.0;0.0;0;0;0;0;0;0;0;0;0;0;0;1050.0;1500.0;1521.0;1543.0;2000.0;1000.0;1000.0;1000.0;0.0;0.0;0.0;0.0;0.0;0.0;0.0;0.0;
2014_02_23_09_38_26;1393144706356;0.0;0.0;0.0;0.0;0.0;0.0;0.0;0.0;0.0;1.94;0.0;0.0;0.0;0.0;0.0;2.0;0.0;0;0;0;0;0;0;0;0;0;0;0;1050.0;1500.0;1522.0;1522.0;2000.0;1000.0;1000.0;1000.0;0.0;0.0;0.0;0.0;0.0;0.0;0.0;0.0;
2014_02_23_09_38_26;1393144706463;0.0;0.0;0.0;0.0;0.0;0.0;0.0;0.0;0.0;1.94;0.0;0.0;0.0;0.0;0.0;2.0;0.0;0;0;0;0;0;0;0;0;0;0;0;1050.0;1500.0;1522.0;1522.0;2000.0;1000.0;1000.0;1000.0;0.0;0.0;0.0;0.0;0.0;0.0;0.0;0.0;
2014_02_23_09_38_26;1393144706563;0.0;0.0;0.0;0.0;0.0;0.0;0.0;0.0;0.0;1.94;0.0;0.0;0.0;0.0;0.0;2.0;0.0;0;0;0;0;0;0;0;0;0;0;0;1050.0;1500.0;1526.0;1526.0;2000.0;1000.0;1000.0;1000.0;0.0;0.0;0.0;0.0;0.0;0.0;0.0;0.0;
2014_02_23_09_38_26;1393144706771;0.0;0.0;0.0;0.0;0.0;0.0;0.0;0.0;0.0;1.94;0.0;0.0;0.0;0.0;0.0;2.0;0.0;0;0;0;0;0;0;0;0;0;0;0;1050.0;1500.0;1542.0;1528.0;2000.0;1000.0;1000.0;1000.0;0.0;0.0;0.0;0.0;0.0;0.0;0.0;0.0;
2014_02_23_09_38_26;1393144706955;0.0;0.0;0.0;0.0;0.0;0.0;0.0;0.0;0.0;1.94;0.0;0.0;0.0;0.0;0.0;2.0;0.0;0;0;0;0;0;0;0;0;0;0;0;1060.0;1500.0;1479.0;1512.0;2000.0;1000.0;1000.0;1000.0;0.0;0.0;0.0;0.0;0.0;0.0;0.0;0.0;
2014_02_23_09_38_26;1393144706960;0.0;0.0;0.0;0.0;0.0;0.0;0.0;0.0;0.0;1.94;0.0;0.0;0.0;0.0;0.0;2.0;0.0;0;0;0;0;0;0;0;0;0;0;0;1060.0;1500.0;1479.0;1512.0;2000.0;1000.0;1000.0;1000.0;0.0;0.0;0.0;0.0;0.0;0.0;0.0;0.0;
2014_02_23_09_38_27;1393144707026;0.0;0.0;0.0;0.0;0.0;0.0;0.0;0.0;0.0;1.94;0.0;0.0;0.0;0.0;0.0;2.0;0.0;0;0;0;0;0;0;0;0;0;0;0;1060.0;1500.0;1463.0;1513.0;2000.0;1000.0;1000.0;1000.0;0.0;0.0;0.0;0.0;0.0;0.0;0.0;0.0;
2014_02_23_09_38_27;1393144707211;0.0;0.0;0.0;0.0;0.0;0.0;0.0;0.0;0.0;1.94;0.0;0.0;0.0;0.0;0.0;2.0;0.0;0;0;0;0;0;0;0;0;0;0;0;1060.0;1500.0;1465.0;1529.0;2000.0;1000.0;1000.0;1000.0;0.0;0.0;0.0;0.0;0.0;0.0;0.0;0.0;
2014_02_23_09_38_27;1393144707296;0.0;0.0;0.0;0.0;0.0;0.0;0.0;0.0;0.0;1.94;0.0;0.0;0.0;0.0;0.0;2.0;0.0;0;0;0;0;0;0;0;0;0;0;0;1060.0;1500.0;1471.0;1518.0;2000.0;1000.0;1000.0;1000.0;0.0;0.0;0.0;0.0;0.0;0.0;0.0;0.0;
2014_02_23_09_38_27;1393144707315;0.0;0.0;0.0;0.0;0.0;0.0;0.0;0.0;0.0;1.94;0.0;0.0;0.0;0.0;0.0;2.0;0.0;0;0;0;0;0;0;0;0;0;0;0;1060.0;1500.0;1471.0;1518.0;2000.0;1000.0;1000.0;1000.0;0.0;0.0;0.0;0.0;0.0;0.0;0.0;0.0;
2014_02_23_09_38_27;1393144707505;0.0;0.0;0.0;0.0;0.0;0.0;0.0;0.0;0.0;1.94;0.0;0.0;0.0;0.0;0.0;2.0;0.0;0;0;0;0;0;0;0;0;0;0;0;1060.0;1500.0;1509.0;1519.0;2000.0;1000.0;1000.0;1000.0;0.0;0.0;0.0;0.0;0.0;0.0;0.0;0.0;
2014_02_23_09_38_27;1393144707783;0.0;0.0;0.0;0.0;0.0;0.0;0.0;0.0;0.0;1.94;0.0;0.0;0.0;0.0;0.0;2.0;0.0;0;0;0;0;0;0;0;0;0;0;0;1070.0;1500.0;1491.0;1518.0;2000.0;1000.0;1000.0;1000.0;0.0;0.0;0.0;0.0;0.0;0.0;0.0;0.0;
2014_02_23_09_38_27;1393144707861;0.0;0.0;0.0;0.0;0.0;0.0;0.0;0.0;0.0;1.94;0.0;0.0;0.0;0.0;0.0;2.0;0.0;0;0;0;0;0;0;0;0;0;0;0;1500.0;1500.0;1500.0;1504.0;1504.0;1500.0;1500.0;1500.0;0.0;0.0;0.0;0.0;0.0;0.0;0.0;0.0;
2014_02_23_09_38_27;1393144707951;0.0;0.0;0.0;0.0;0.0;0.0;0.0;0.0;0.0;1.94;0.0;0.0;0.0;0.0;0.0;2.0;0.0;0;0;0;0;0;0;0;0;0;0;0;1070.0;1500.0;1481.0;1504.0;2000.0;1000.0;1000.0;1000.0;0.0;0.0;0.0;0.0;0.0;0.0;0.0;0.0;
2014_02_23_09_38_28;1393144708058;0.0;0.0;0.0;0.0;0.0;0.0;0.0;0.0;0.0;1.94;0.0;0.0;0.0;0.0;0.0;2.0;0.0;0;0;0;0;0;0;0;0;0;0;0;1080.0;1500.0;1500.0;1504.0;2000.0;1000.0;1000.0;1000.0;0.0;0.0;0.0;0.0;0.0;0.0;0.0;0.0;
2014_02_23_09_38_28;1393144708066;0.0;0.0;0.0;0.0;0.0;0.0;0.0;0.0;0.0;1.94;0.0;0.0;0.0;0.0;0.0;2.0;0.0;0;0;0;0;0;0;0;0;0;0;0;1080.0;1500.0;1500.0;1504.0;2000.0;1000.0;1000.0;1000.0;0.0;0.0;0.0;0.0;0.0;0.0;0.0;0.0;
2014_02_23_09_38_28;1393144708159;0.0;0.0;0.0;0.0;0.0;0.0;0.0;0.0;0.0;1.94;0.0;0.0;0.0;0.0;0.0;2.0;0.0;0;0;0;0;0;0;0;0;0;0;0;1080.0;1500.0;1500.0;1509.0;2000.0;1000.0;1000.0;1000.0;0.0;0.0;0.0;0.0;0.0;0.0;0.0;0.0;
2014_02_23_09_38_28;1393144708321;0.0;0.0;0.0;0.0;0.0;0.0;0.0;0.0;0.0;1.94;0.0;0.0;0.0;0.0;0.0;2.0;0.0;0;0;0;0;0;0;0;0;0;0;0;1080.0;1500.0;1500.0;1521.0;2000.0;1000.0;1000.0;1000.0;0.0;0.0;0.0;0.0;0.0;0.0;0.0;0.0;
2014_02_23_09_38_28;1393144708326;0.0;0.0;0.0;0.0;0.0;0.0;0.0;0.0;0.0;1.94;0.0;0.0;0.0;0.0;0.0;2.0;0.0;0;0;0;0;0;0;0;0;0;0;0;1080.0;1500.0;1500.0;1521.0;2000.0;1000.0;1000.0;1000.0;0.0;0.0;0.0;0.0;0.0;0.0;0.0;0.0;
2014_02_23_09_38_28;1393144708470;0.0;0.0;0.0;0.0;0.0;0.0;0.0;0.0;0.0;1.94;0.0;0.0;0.0;0.0;0.0;2.0;0.0;0;0;0;0;0;0;0;0;0;0;0;1080.0;1500.0;1486.0;1531.0;2000.0;1000.0;1000.0;1000.0;0.0;0.0;0.0;0.0;0.0;0.0;0.0;0.0;
2014_02_23_09_38_28;1393144708480;0.0;0.0;0.0;0.0;0.0;0.0;0.0;0.0;0.0;1.94;0.0;0.0;0.0;0.0;0.0;2.0;0.0;0;0;0;0;0;0;0;0;0;0;0;1080.0;1500.0;1486.0;1531.0;2000.0;1000.0;1000.0;1000.0;0.0;0.0;0.0;0.0;0.0;0.0;0.0;0.0;
2014_02_23_09_38_28;1393144708630;0.0;0.0;0.0;0.0;0.0;0.0;0.0;0.0;0.0;1.94;0.0;0.0;0.0;0.0;0.0;2.0;0.0;0;0;0;0;0;0;0;0;0;0;0;1080.0;1500.0;1486.0;1532.0;2000.0;1000.0;1000.0;1000.0;0.0;0.0;0.0;0.0;0.0;0.0;0.0;0.0;
2014_02_23_09_38_28;1393144708931;0.0;0.0;0.0;0.0;0.0;0.0;0.0;0.0;0.0;1.94;0.0;0.0;0.0;0.0;0.0;2.0;0.0;0;0;0;0;0;0;0;0;0;0;0;1090.0;1500.0;1474.0;1535.0;2000.0;1000.0;1000.0;1000.0;0.0;0.0;0.0;0.0;0.0;0.0;0.0;0.0;
2014_02_23_09_38_28;1393144708972;0.0;0.0;0.0;0.0;0.0;0.0;0.0;0.0;0.0;1.94;0.0;0.0;0.0;0.0;0.0;2.0;0.0;0;0;0;0;0;0;0;0;0;0;0;1090.0;1500.0;1474.0;1535.0;2000.0;1000.0;1000.0;1000.0;0.0;0.0;0.0;0.0;0.0;0.0;0.0;0.0;
2014_02_23_09_38_29;1393144709065;0.0;0.0;0.0;0.0;0.0;0.0;0.0;0.0;0.0;1.94;0.0;0.0;0.0;0.0;0.0;2.0;0.0;0;0;0;0;0;0;0;0;0;0;0;1090.0;1500.0;1491.0;1524.0;2000.0;1000.0;1000.0;1000.0;0.0;0.0;0.0;0.0;0.0;0.0;0.0;0.0;
2014_02_23_09_38_29;1393144709078;0.0;0.0;0.0;0.0;0.0;0.0;0.0;0.0;0.0;1.94;0.0;0.0;0.0;0.0;0.0;2.0;0.0;0;0;0;0;0;0;0;0;0;0;0;1090.0;1500.0;1491.0;1524.0;2000.0;1000.0;1000.0;1000.0;0.0;0.0;0.0;0.0;0.0;0.0;0.0;0.0;
2014_02_23_09_38_29;1393144709258;0.0;0.0;0.0;0.0;0.0;0.0;0.0;0.0;0.0;1.94;0.0;0.0;0.0;0.0;0.0;2.0;0.0;0;0;0;0;0;0;0;0;0;0;0;1100.0;1500.0;1500.0;1518.0;2000.0;1000.0;1000.0;1000.0;0.0;0.0;0.0;0.0;0.0;0.0;0.0;0.0;
2014_02_23_09_38_29;1393144709285;0.0;0.0;0.0;0.0;0.0;0.0;0.0;0.0;0.0;1.94;0.0;0.0;0.0;0.0;0.0;2.0;0.0;0;0;0;0;0;0;0;0;0;0;0;1100.0;1500.0;1500.0;1518.0;2000.0;1000.0;1000.0;1000.0;0.0;0.0;0.0;0.0;0.0;0.0;0.0;0.0;
2014_02_23_09_38_29;1393144709329;0.0;0.0;0.0;0.0;0.0;0.0;0.0;0.0;0.0;1.94;0.0;0.0;0.0;0.0;0.0;2.0;0.0;0;0;0;0;0;0;0;0;0;0;0;1100.0;1500.0;1476.0;1518.0;2000.0;1000.0;1000.0;1000.0;0.0;0.0;0.0;0.0;0.0;0.0;0.0;0.0;
2014_02_23_09_38_29;1393144709407;0.0;0.0;0.0;0.0;0.0;0.0;0.0;0.0;0.0;1.94;0.0;0.0;0.0;0.0;0.0;2.0;0.0;0;0;0;0;0;0;0;0;0;0;0;1100.0;1500.0;1486.0;1518.0;2000.0;1000.0;1000.0;1000.0;0.0;0.0;0.0;0.0;0.0;0.0;0.0;0.0;
2014_02_23_09_38_29;1393144709453;0.0;0.0;0.0;0.0;0.0;0.0;0.0;0.0;0.0;1.94;0.0;0.0;0.0;0.0;0.0;2.0;0.0;0;0;0;0;0;0;0;0;0;0;0;1100.0;1500.0;1486.0;1518.0;2000.0;1000.0;1000.0;1000.0;0.0;0.0;0.0;0.0;0.0;0.0;0.0;0.0;
2014_02_23_09_38_29;1393144709665;0.0;0.0;0.0;0.0;0.0;0.0;0.0;0.0;0.0;1.94;0.0;0.0;0.0;0.0;0.0;2.0;0.0;0;0;0;0;0;0;0;0;0;0;0;1100.0;1500.0;1477.0;1518.0;2000.0;1000.0;1000.0;1000.0;0.0;0.0;0.0;0.0;0.0;0.0;0.0;0.0;
2014_02_23_09_38_29;1393144709837;0.0;0.0;0.0;0.0;0.0;0.0;0.0;0.0;0.0;1.94;0.0;0.0;0.0;0.0;0.0;2.0;0.0;0;0;0;0;0;0;0;0;0;0;0;1090.0;1500.0;1491.0;1513.0;2000.0;1000.0;1000.0;1000.0;0.0;0.0;0.0;0.0;0.0;0.0;0.0;0.0;
2014_02_23_09_38_29;1393144709840;0.0;0.0;0.0;0.0;0.0;0.0;0.0;0.0;0.0;1.94;0.0;0.0;0.0;0.0;0.0;2.0;0.0;0;0;0;0;0;0;0;0;0;0;0;1090.0;1500.0;1491.0;1513.0;2000.0;1000.0;1000.0;1000.0;0.0;0.0;0.0;0.0;0.0;0.0;0.0;0.0;
2014_02_23_09_38_29;1393144709864;0.0;0.0;0.0;0.0;0.0;0.0;0.0;0.0;0.0;1.94;0.0;0.0;0.0;0.0;0.0;2.0;0.0;0;0;0;0;0;0;0;0;0;0;0;1090.0;1500.0;1491.0;1513.0;2000.0;1000.0;1000.0;1000.0;0.0;0.0;0.0;0.0;0.0;0.0;0.0;0.0;
2014_02_23_09_38_30;1393144710048;0.0;0.0;0.0;0.0;0.0;0.0;0.0;0.0;0.0;1.94;0.0;0.0;0.0;0.0;0.0;2.0;0.0;0;0;0;0;0;0;0;0;0;0;0;1090.0;1500.0;1486.0;1518.0;2000.0;1000.0;1000.0;1000.0;0.0;0.0;0.0;0.0;0.0;0.0;0.0;0.0;
2014_02_23_09_38_30;1393144710075;0.0;0.0;0.0;0.0;0.0;0.0;0.0;0.0;0.0;1.94;0.0;0.0;0.0;0.0;0.0;2.0;0.0;0;0;0;0;0;0;0;0;0;0;0;1090.0;1500.0;1486.0;1518.0;2000.0;1000.0;1000.0;1000.0;0.0;0.0;0.0;0.0;0.0;0.0;0.0;0.0;
2014_02_23_09_38_30;1393144710181;0.0;0.0;0.0;0.0;0.0;0.0;0.0;0.0;0.0;1.94;0.0;0.0;0.0;0.0;0.0;2.0;0.0;0;0;0;0;0;0;0;0;0;0;0;1080.0;1500.0;1486.0;1518.0;2000.0;1000.0;1000.0;1000.0;0.0;0.0;0.0;0.0;0.0;0.0;0.0;0.0;
2014_02_23_09_38_30;1393144710284;0.0;0.0;0.0;0.0;0.0;0.0;0.0;0.0;0.0;1.94;0.0;0.0;0.0;0.0;0.0;2.0;0.0;0;0;0;0;0;0;0;0;0;0;0;1070.0;1500.0;1495.0;1509.0;2000.0;1000.0;1000.0;1000.0;0.0;0.0;0.0;0.0;0.0;0.0;0.0;0.0;
2014_02_23_09_38_30;1393144710385;0.0;0.0;0.0;0.0;0.0;0.0;0.0;0.0;0.0;1.94;0.0;0.0;0.0;0.0;0.0;2.0;0.0;0;0;0;0;0;0;0;0;0;0;0;1060.0;1500.0;1491.0;1509.0;2000.0;1000.0;1000.0;1000.0;0.0;0.0;0.0;0.0;0.0;0.0;0.0;0.0;
2014_02_23_09_38_30;1393144710569;0.0;0.0;0.0;0.0;0.0;0.0;0.0;0.0;0.0;1.94;0.0;0.0;0.0;0.0;0.0;2.0;0.0;0;0;0;0;0;0;0;0;0;0;0;1050.0;1500.0;1491.0;1509.0;2000.0;1000.0;1000.0;1000.0;0.0;0.0;0.0;0.0;0.0;0.0;0.0;0.0;
2014_02_23_09_38_30;1393144710643;0.0;0.0;0.0;0.0;0.0;0.0;0.0;0.0;0.0;1.94;0.0;0.0;0.0;0.0;0.0;2.0;0.0;0;0;0;0;0;0;0;0;0;0;0;1040.0;1500.0;1491.0;1509.0;2000.0;1000.0;1000.0;1000.0;0.0;0.0;0.0;0.0;0.0;0.0;0.0;0.0;
2014_02_23_09_38_30;1393144710911;0.0;0.0;0.0;0.0;0.0;0.0;0.0;0.0;0.0;1.94;0.0;0.0;0.0;0.0;0.0;2.0;0.0;0;0;0;0;0;0;0;0;0;0;0;1020.0;1500.0;1477.0;1522.0;2000.0;1000.0;1000.0;1000.0;0.0;0.0;0.0;0.0;0.0;0.0;0.0;0.0;
2014_02_23_09_38_30;1393144710927;0.0;0.0;0.0;0.0;0.0;0.0;0.0;0.0;0.0;1.94;0.0;0.0;0.0;0.0;0.0;2.0;0.0;0;0;0;0;0;0;0;0;0;0;0;1020.0;1500.0;1477.0;1522.0;2000.0;1000.0;1000.0;1000.0;0.0;0.0;0.0;0.0;0.0;0.0;0.0;0.0;
2014_02_23_09_38_30;1393144710959;0.0;0.0;0.0;0.0;0.0;0.0;0.0;0.0;0.0;1.94;0.0;0.0;0.0;0.0;0.0;2.0;0.0;0;0;0;0;0;0;0;0;0;0;0;1020.0;1500.0;1477.0;1522.0;2000.0;1000.0;1000.0;1000.0;0.0;0.0;0.0;0.0;0.0;0.0;0.0;0.0;
2014_02_23_09_38_31;1393144711092;0.0;0.0;0.0;0.0;0.0;0.0;0.0;0.0;0.0;1.94;0.0;0.0;0.0;0.0;0.0;2.0;0.0;0;0;0;0;0;0;0;0;0;0;0;1030.0;1500.0;1458.0;1528.0;2000.0;1000.0;1000.0;1000.0;0.0;0.0;0.0;0.0;0.0;0.0;0.0;0.0;
2014_02_23_09_38_31;1393144711158;0.0;0.0;0.0;0.0;0.0;0.0;0.0;0.0;0.0;1.94;0.0;0.0;0.0;0.0;0.0;2.0;0.0;0;0;0;0;0;0;0;0;0;0;0;1030.0;1500.0;1477.0;1518.0;2000.0;1000.0;1000.0;1000.0;0.0;0.0;0.0;0.0;0.0;0.0;0.0;0.0;
2014_02_23_09_38_31;1393144711292;0.0;0.0;0.0;0.0;0.0;0.0;0.0;0.0;0.0;1.94;0.0;0.0;0.0;0.0;0.0;2.0;0.0;0;0;0;0;0;0;0;0;0;0;0;1040.0;1500.0;1481.0;1504.0;2000.0;1000.0;1000.0;1000.0;0.0;0.0;0.0;0.0;0.0;0.0;0.0;0.0;
2014_02_23_09_38_31;1393144711381;0.0;0.0;0.0;0.0;0.0;0.0;0.0;0.0;0.0;1.94;0.0;0.0;0.0;0.0;0.0;2.0;0.0;0;0;0;0;0;0;0;0;0;0;0;1040.0;1500.0;1491.0;1504.0;2000.0;1000.0;1000.0;1000.0;0.0;0.0;0.0;0.0;0.0;0.0;0.0;0.0;
2014_02_23_09_38_31;1393144711513;0.0;0.0;0.0;0.0;0.0;0.0;0.0;0.0;0.0;1.94;0.0;0.0;0.0;0.0;0.0;2.0;0.0;0;0;0;0;0;0;0;0;0;0;0;1040.0;1500.0;1486.0;1504.0;2000.0;1000.0;1000.0;1000.0;0.0;0.0;0.0;0.0;0.0;0.0;0.0;0.0;
2014_02_23_09_38_31;1393144711857;0.0;0.0;0.0;0.0;0.0;0.0;0.0;0.0;0.0;1.94;0.0;0.0;0.0;0.0;0.0;2.0;0.0;0;0;0;0;0;0;0;0;0;0;0;1050.0;1500.0;1471.0;1513.0;2000.0;1000.0;1000.0;1000.0;0.0;0.0;0.0;0.0;0.0;0.0;0.0;0.0;
2014_02_23_09_38_31;1393144711896;0.0;0.0;0.0;0.0;0.0;0.0;0.0;0.0;0.0;1.94;0.0;0.0;0.0;0.0;0.0;2.0;0.0;0;0;0;0;0;0;0;0;0;0;0;1500.0;1500.0;1471.0;1513.0;1504.0;1500.0;1500.0;1500.0;0.0;0.0;0.0;0.0;0.0;0.0;0.0;0.0;
2014_02_23_09_38_32;1393144712045;0.0;0.0;0.0;0.0;0.0;0.0;0.0;0.0;0.0;1.94;0.0;0.0;0.0;0.0;0.0;2.0;0.0;0;0;0;0;0;0;0;0;0;0;0;1060.0;1500.0;1474.0;1509.0;2000.0;1000.0;1000.0;1000.0;0.0;0.0;0.0;0.0;0.0;0.0;0.0;0.0;
2014_02_23_09_38_32;1393144712097;0.0;0.0;0.0;0.0;0.0;0.0;0.0;0.0;0.0;1.94;0.0;0.0;0.0;0.0;0.0;2.0;0.0;0;0;0;0;0;0;0;0;0;0;0;1060.0;1500.0;1495.0;1504.0;2000.0;1000.0;1000.0;1000.0;0.0;0.0;0.0;0.0;0.0;0.0;0.0;0.0;
2014_02_23_09_38_32;1393144712190;0.0;0.0;0.0;0.0;0.0;0.0;0.0;0.0;0.0;1.94;0.0;0.0;0.0;0.0;0.0;2.0;0.0;0;0;0;0;0;0;0;0;0;0;0;1060.0;1500.0;1486.0;1509.0;2000.0;1000.0;1000.0;1000.0;0.0;0.0;0.0;0.0;0.0;0.0;0.0;0.0;
2014_02_23_09_38_32;1393144712256;0.0;0.0;0.0;0.0;0.0;0.0;0.0;0.0;0.0;1.94;0.0;0.0;0.0;0.0;0.0;2.0;0.0;0;0;0;0;0;0;0;0;0;0;0;1060.0;1500.0;1486.0;1509.0;2000.0;1000.0;1000.0;1000.0;0.0;0.0;0.0;0.0;0.0;0.0;0.0;0.0;
2014_02_23_09_38_32;1393144712360;0.0;0.0;0.0;0.0;0.0;0.0;0.0;0.0;0.0;1.94;0.0;0.0;0.0;0.0;0.0;2.0;0.0;0;0;0;0;0;0;0;0;0;0;0;1060.0;1500.0;1482.0;1513.0;2000.0;1000.0;1000.0;1000.0;0.0;0.0;0.0;0.0;0.0;0.0;0.0;0.0;
2014_02_23_09_38_32;1393144712666;0.0;0.0;0.0;0.0;0.0;0.0;0.0;0.0;0.0;1.94;0.0;0.0;0.0;0.0;0.0;2.0;0.0;0;0;0;0;0;0;0;0;0;0;0;1070.0;1500.0;1491.0;1504.0;2000.0;1000.0;1000.0;1000.0;0.0;0.0;0.0;0.0;0.0;0.0;0.0;0.0;
2014_02_23_09_38_32;1393144712717;0.0;0.0;0.0;0.0;0.0;0.0;0.0;0.0;0.0;1.94;0.0;0.0;0.0;0.0;0.0;2.0;0.0;0;0;0;0;0;0;0;0;0;0;0;1070.0;1500.0;1491.0;1504.0;2000.0;1000.0;1000.0;1000.0;0.0;0.0;0.0;0.0;0.0;0.0;0.0;0.0;
2014_02_23_09_38_32;1393144712967;0.0;0.0;0.0;0.0;0.0;0.0;0.0;0.0;0.0;1.94;0.0;0.0;0.0;0.0;0.0;2.0;0.0;0;0;0;0;0;0;0;0;0;0;0;1070.0;1500.0;1476.0;1509.0;2000.0;1000.0;1000.0;1000.0;0.0;0.0;0.0;0.0;0.0;0.0;0.0;0.0;
2014_02_23_09_38_33;1393144713009;0.0;0.0;0.0;0.0;0.0;0.0;0.0;0.0;0.0;1.94;0.0;0.0;0.0;0.0;0.0;2.0;0.0;0;0;0;0;0;0;0;0;0;0;0;1070.0;1500.0;1476.0;1509.0;2000.0;1000.0;1000.0;1000.0;0.0;0.0;0.0;0.0;0.0;0.0;0.0;0.0;
2014_02_23_09_38_33;1393144713021;0.0;0.0;0.0;0.0;0.0;0.0;0.0;0.0;0.0;1.94;0.0;0.0;0.0;0.0;0.0;2.0;0.0;0;0;0;0;0;0;0;0;0;0;0;1070.0;1500.0;1476.0;1509.0;2000.0;1000.0;1000.0;1000.0;0.0;0.0;0.0;0.0;0.0;0.0;0.0;0.0;
2014_02_23_09_38_33;1393144713184;0.0;0.0;0.0;0.0;0.0;0.0;0.0;0.0;0.0;1.94;0.0;0.0;0.0;0.0;0.0;2.0;0.0;0;0;0;0;0;0;0;0;0;0;0;1080.0;1500.0;1490.0;1509.0;2000.0;1000.0;1000.0;1000.0;0.0;0.0;0.0;0.0;0.0;0.0;0.0;0.0;
2014_02_23_09_38_33;1393144713189;0.0;0.0;0.0;0.0;0.0;0.0;0.0;0.0;0.0;1.94;0.0;0.0;0.0;0.0;0.0;2.0;0.0;0;0;0;0;0;0;0;0;0;0;0;1080.0;1500.0;1490.0;1509.0;2000.0;1000.0;1000.0;1000.0;0.0;0.0;0.0;0.0;0.0;0.0;0.0;0.0;
2014_02_23_09_38_33;1393144713245;0.0;0.0;0.0;0.0;0.0;0.0;0.0;0.0;0.0;1.94;0.0;0.0;0.0;0.0;0.0;2.0;0.0;0;0;0;0;0;0;0;0;0;0;0;1080.0;1500.0;1490.0;1509.0;2000.0;1000.0;1000.0;1000.0;0.0;0.0;0.0;0.0;0.0;0.0;0.0;0.0;
2014_02_23_09_38_33;1393144713321;0.0;0.0;0.0;0.0;0.0;0.0;0.0;0.0;0.0;1.94;0.0;0.0;0.0;0.0;0.0;2.0;0.0;0;0;0;0;0;0;0;0;0;0;0;1080.0;1500.0;1477.0;1509.0;2000.0;1000.0;1000.0;1000.0;0.0;0.0;0.0;0.0;0.0;0.0;0.0;0.0;
2014_02_23_09_38_33;1393144713414;0.0;0.0;0.0;0.0;0.0;0.0;0.0;0.0;0.0;1.94;0.0;0.0;0.0;0.0;0.0;2.0;0.0;0;0;0;0;0;0;0;0;0;0;0;1080.0;1500.0;1481.0;1518.0;2000.0;1000.0;1000.0;1000.0;0.0;0.0;0.0;0.0;0.0;0.0;0.0;0.0;
2014_02_23_09_38_33;1393144713718;0.0;0.0;0.0;0.0;0.0;0.0;0.0;0.0;0.0;1.94;0.0;0.0;0.0;0.0;0.0;2.0;0.0;0;0;0;0;0;0;0;0;0;0;0;1090.0;1500.0;1476.0;1509.0;2000.0;1000.0;1000.0;1000.0;0.0;0.0;0.0;0.0;0.0;0.0;0.0;0.0;
2014_02_23_09_38_33;1393144713929;0.0;0.0;0.0;0.0;0.0;0.0;0.0;0.0;0.0;1.94;0.0;0.0;0.0;0.0;0.0;2.0;0.0;0;0;0;0;0;0;0;0;0;0;0;1090.0;1500.0;1486.0;1518.0;2000.0;1000.0;1000.0;1000.0;0.0;0.0;0.0;0.0;0.0;0.0;0.0;0.0;
2014_02_23_09_38_33;1393144713944;0.0;0.0;0.0;0.0;0.0;0.0;0.0;0.0;0.0;1.94;0.0;0.0;0.0;0.0;0.0;2.0;0.0;0;0;0;0;0;0;0;0;0;0;0;1090.0;1500.0;1486.0;1518.0;2000.0;1000.0;1000.0;1000.0;0.0;0.0;0.0;0.0;0.0;0.0;0.0;0.0;
2014_02_23_09_38_34;1393144714127;0.0;0.0;0.0;0.0;0.0;0.0;0.0;0.0;0.0;1.94;0.0;0.0;0.0;0.0;0.0;2.0;0.0;0;0;0;0;0;0;0;0;0;0;0;1100.0;1500.0;1482.0;1513.0;2000.0;1000.0;1000.0;1000.0;0.0;0.0;0.0;0.0;0.0;0.0;0.0;0.0;
2014_02_23_09_38_34;1393144714144;0.0;0.0;0.0;0.0;0.0;0.0;0.0;0.0;0.0;1.94;0.0;0.0;0.0;0.0;0.0;2.0;0.0;0;0;0;0;0;0;0;0;0;0;0;1100.0;1500.0;1482.0;1513.0;2000.0;1000.0;1000.0;1000.0;0.0;0.0;0.0;0.0;0.0;0.0;0.0;0.0;
2014_02_23_09_38_34;1393144714236;0.0;0.0;0.0;0.0;0.0;0.0;0.0;0.0;0.0;1.94;0.0;0.0;0.0;0.0;0.0;2.0;0.0;0;0;0;0;0;0;0;0;0;0;0;1100.0;1500.0;1471.0;1518.0;2000.0;1000.0;1000.0;1000.0;0.0;0.0;0.0;0.0;0.0;0.0;0.0;0.0;
2014_02_23_09_38_34;1393144714304;0.0;0.0;0.0;0.0;0.0;0.0;0.0;0.0;0.0;1.94;0.0;0.0;0.0;0.0;0.0;2.0;0.0;0;0;0;0;0;0;0;0;0;0;0;1100.0;1500.0;1500.0;1519.0;2000.0;1000.0;1000.0;1000.0;0.0;0.0;0.0;0.0;0.0;0.0;0.0;0.0;
2014_02_23_09_38_34;1393144714429;0.0;0.0;0.0;0.0;0.0;0.0;0.0;0.0;0.0;1.94;0.0;0.0;0.0;0.0;0.0;2.0;0.0;0;0;0;0;0;0;0;0;0;0;0;1100.0;1500.0;1500.0;1519.0;2000.0;1000.0;1000.0;1000.0;0.0;0.0;0.0;0.0;0.0;0.0;0.0;0.0;
2014_02_23_09_38_34;1393144714447;0.0;0.0;0.0;0.0;0.0;0.0;0.0;0.0;0.0;1.94;0.0;0.0;0.0;0.0;0.0;2.0;0.0;0;0;0;0;0;0;0;0;0;0;0;1100.0;1500.0;1500.0;1519.0;2000.0;1000.0;1000.0;1000.0;0.0;0.0;0.0;0.0;0.0;0.0;0.0;0.0;
